Localidad,Rubro,NomComercio,Direccion,Prefijo,NroTel,Dto,Provincia,ImgCooBUENOS AIRESp,ImgCoopLink,ImgComercio,Latitud,Longitud
BAHÍA BLANCA,DEPORTE,AGUAMARINA SPORT,BELGRANO 207,291,4500859,15,BUENOS AIRES,slider-coopeplus1,https://www.coopeplus.com.ar/,CooperativaObrera,-38.7177012,-62.2612873
BAHÍA BLANCA,DEPORTE,BAHÍA DEPORTES,AV. ARIAS 2009,,,15,BUENOS AIRES,,,CooperativaObrera,-38.7532456,-62.2661058
BAHÍA BLANCA,DEPORTE,BIENESTAR SPORT,O´HIGGINS 201,291,4548621,15,BUENOS AIRES,,,CooperativaObrera,-38.72165,-62.2684
BAHÍA BLANCA,DEPORTE,FIT DK,YRIGOYEN 110,291,4531070,15,BUENOS AIRES,,,CooperativaObrera,-38.7165545,-62.2649696
BAHÍA BLANCA,DEPORTE,FITNESS SPORT CENTER,SOLER 206,291,4526868,15,BUENOS AIRES,,,CooperativaObrera,-38.7177928,-62.2613309
BAHÍA BLANCA,DEPORTE,LA FÁBRICA,O´HIGGINS 77,291,4552561,15,BUENOS AIRES,,,CooperativaObrera,-38.720241,-62.2668309
BAHÍA BLANCA,DEPORTE,TODO TENIS,GENERAL PAZ 172,291,4521218,15,BUENOS AIRES,,,CooperativaObrera,-38.7206154,-62.2585297
BAHÍA BLANCA,FARMACIA,FARMACIA GRÜNBEIN,RAFAEL OBLIGADO 5766,291,4822525,10,BUENOS AIRES,,,CooperativaObrera,-38.7540449,-62.1786371
BAHÍA BLANCA,INDUMENTARIA,AIR PUMPS,ALSINA 111,291,4556619,15,BUENOS AIRES,,,CooperativaObrera,-38.7175861,-62.2633495
BAHÍA BLANCA,INDUMENTARIA,ALFIS JEANS,BELGRANO 50,291,4520987,15,BUENOS AIRES,,,CooperativaObrera,-38.7192055,-62.2635675
BAHÍA BLANCA,INDUMENTARIA,ANIS,DRAGO 192,291,4565264,15,BUENOS AIRES,,,CooperativaObrera,-38.7206545,-62.2652936
BAHÍA BLANCA,INDUMENTARIA,ARIES INDUMENTARIA,AV. ARIAS 2132,,,15,BUENOS AIRES,,,CooperativaObrera,-38.75401,-62.264609
BAHÍA BLANCA,INDUMENTARIA,ATOBA,ALSINA 122,291,4556524,10,BUENOS AIRES,,,CooperativaObrera,-38.7173886,-62.2635198
BAHÍA BLANCA,INDUMENTARIA,BACOLINO,BELGRANO 73,291,4565939,15,BUENOS AIRES,,,CooperativaObrera,-38.7189768,-62.2630166
BAHÍA BLANCA,INDUMENTARIA,BIOFITNESS,12 DE OCTUBRE 176,291,154298650,10,BUENOS AIRES,,,CooperativaObrera,-38.7107373,-62.2603949
BAHÍA BLANCA,INDUMENTARIA,BORA BORA,SOLER 114,291,4542619,15,BUENOS AIRES,,,CooperativaObrera,-38.7169578,-62.2622573
BAHÍA BLANCA,INDUMENTARIA,BRITCHES,ALSINA 99,291,4527766,15,BUENOS AIRES,,,CooperativaObrera,-38.7178593,-62.2637207
BAHÍA BLANCA,INDUMENTARIA,BUENA VIDA,TUCUMÁN 1299,291,154251629,10,BUENOS AIRES,,,CooperativaObrera,-38.7129679,-62.2886073
BAHÍA BLANCA,INDUMENTARIA,BUENA VIDA INDUMENTARIA DEPORTIVA,11 DE ABRIL 14,291,156463138,15,BUENOS AIRES,,,,-38.714595,-62.2707514
BAHÍA BLANCA,DEPORTE,NÉSTOR MAZZA,DON BOSCO 486,291,4536846,15,BUENOS AIRES,,,CooperativaObrera,-38.727075,-62.287859
BAHÍA BLANCA,INDUMENTARIA,CARDÓN,SOLER 45,291,4510471,15,BUENOS AIRES,,,CooperativaObrera,-38.7164592,-62.2633728
BAHÍA BLANCA,INDUMENTARIA,CASA BLANCA SHOWROOM,ESPAÑA 382,,,15,BUENOS AIRES,,,CooperativaObrera,-38.7183177,-62.2663478
BAHÍA BLANCA,INDUMENTARIA,CASUAL DAY,ESTOMBA 298,291,4520683,15,BUENOS AIRES,,,CooperativaObrera,-38.7160188,-62.2694904
BAHÍA BLANCA,INDUMENTARIA,CIUDAD MÁGICA INDUMENTARIA,NECOCHEA 1174,291,4814612,15,BUENOS AIRES,,,CooperativaObrera,-38.729278,-62.2301847
BAHÍA BLANCA,INDUMENTARIA,COCO RAYADO,BELGRANO 87,291,4562151,15,BUENOS AIRES,,,CooperativaObrera,-38.7188614,-62.2627429
BAHÍA BLANCA,INDUMENTARIA,CÓDIGO MASCULINO,SOLER 54,291,4525251,15,BUENOS AIRES,,,CooperativaObrera,-38.7165238,-62.2629186
BAHÍA BLANCA,INDUMENTARIA,COSTA BRAV.A,FALUCHO 238,291,4821020,15,BUENOS AIRES,,,CooperativaObrera,-38.729898,-62.252406
BAHÍA BLANCA,INDUMENTARIA,CREDITEX,GARIBALDI 346,291,4814995,15,BUENOS AIRES,,,CooperativaObrera,-38.7284465,-62.246789
BAHÍA BLANCA,INDUMENTARIA,DROMO,SOLER 108,,,15,BUENOS AIRES,,,CooperativaObrera,-38.7168243,-62.2623993
BAHÍA BLANCA,INDUMENTARIA,EKO,SOLER 188,,,15,BUENOS AIRES,,,CooperativaObrera,-38.717546,-62.261657
BAHÍA BLANCA,INDUMENTARIA,EVEREST,ALSINA 288,291,4563700,15,BUENOS AIRES,,,CooperativaObrera,-38.715985,-62.2618771
BAHÍA BLANCA,INDUMENTARIA,GÉMINIS,HONDURAS 1145,291,4501244,15,BUENOS AIRES,,,CooperativaObrera,-38.7456528,-62.2587455
BAHÍA BLANCA,INDUMENTARIA,GREEN,BELGRANO 3,291,4563006,15,BUENOS AIRES,,,CooperativaObrera,-38.719924,-62.263875
BAHÍA BLANCA,INDUMENTARIA,HAIKU,ALSINA 181,291,4520822,15,BUENOS AIRES,,,CooperativaObrera,-38.7170288,-62.2628418
BAHÍA BLANCA,INDUMENTARIA,HANDICAP,SOLER 189,291,4566015,15,BUENOS AIRES,,,CooperativaObrera,-38.7176959,-62.261834
BAHÍA BLANCA,INDUMENTARIA,INDÓMITO,GAL. VISIÓN LOCAL 43,291,155724243,15,BUENOS AIRES,,,CooperativaObrera,-38.7183065,-62.2620169
BAHÍA BLANCA,INDUMENTARIA,LAS LEÑAS,DONADO 41,,,15,BUENOS AIRES,,,CooperativaObrera,-38.7205182,-62.2651013
BAHÍA BLANCA,INDUMENTARIA,LEGACY,ALSINA 175,291,4530314,15,BUENOS AIRES,,,CooperativaObrera,-38.7171699,-62.262808
BAHÍA BLANCA,INDUMENTARIA,LODS JEANS (ALSINA),ALSINA 255,291,4559220,15,BUENOS AIRES,,,CooperativaObrera,-38.7164864,-62.2619773
BAHÍA BLANCA,INDUMENTARIA,MADUS - BAHÍA BLANCA,ZELARRAYÁN Y 11 DE ABRIL,291,4534166,15,BUENOS AIRES,,,CooperativaObrera,-38.713548,-62.269115
BAHÍA BLANCA,INDUMENTARIA,MARGARITA,ALEM 2385,291,4885771,15,BUENOS AIRES,,,CooperativaObrera,-38.6905281,-62.2823119
BAHÍA BLANCA,INDUMENTARIA,MARÍA FERNANDA,RODRÍGUEZ 509,291,4530097,15,BUENOS AIRES,,,CooperativaObrera,-38.7183177,-62.2663478
BAHÍA BLANCA,INDUMENTARIA,MARIBE,R. DE ESCALADA 97,291,156494581,15,BUENOS AIRES,,,CooperativaObrera,-38.7325917,-62.2463303
BAHÍA BLANCA,JOYERÍA Y RELOJERÍA,BATTERY CENTER,SAN MARTÍN 339,,,15,BUENOS AIRES,,,CooperativaObrera,-38.7183177,-62.2663478
BAHÍA BLANCA,JOYERÍA Y RELOJERÍA,CAREY,BELGRANO 21,291,4557274,15,BUENOS AIRES,,,CooperativaObrera,-38.7197281,-62.2636134
BAHÍA BLANCA,JOYERÍA Y RELOJERÍA,JOSÉ CARUSO,CHICLANA 226,291,4543180,15,BUENOS AIRES,,,CooperativaObrera,-38.7198625,-62.2635103
BAHÍA BLANCA,JOYERÍA Y RELOJERÍA,JOYERÍA REIMS,DONADO 33,291,4532044,15,BUENOS AIRES,,,CooperativaObrera,-38.7204829,-62.2649468
BAHÍA BLANCA,JOYERÍA Y RELOJERÍA,JOYERÍA REIMS,BROWN 218,291,4545927,15,BUENOS AIRES,,,CooperativaObrera,-38.7217206,-62.2657494
BAHÍA BLANCA,JOYERÍA Y RELOJERÍA,KUBIC,ALSINA 195,291,4562479,15,BUENOS AIRES,,,CooperativaObrera,-38.7169769,-62.2626831
BAHÍA BLANCA,JOYERÍA Y RELOJERÍA,LILY JOYAS,FALUCHO 280,,,15,BUENOS AIRES,,,CooperativaObrera,-38.729898,-62.252406
BAHÍA BLANCA,JOYERÍA Y RELOJERÍA,RELOJERÍA EL VOLANTE,ESTOMBA 148,,,15,BUENOS AIRES,,,CooperativaObrera,-38.7171435,-62.2679914
BAHÍA BLANCA,JOYERÍA Y RELOJERÍA,VERDE ESMERALDA,CHICLANA 282,291,4535858,15,BUENOS AIRES,,,CooperativaObrera,-38.7204984,-62.2632686
BAHÍA BLANCA,JOYERÍA Y RELOJERÍA,ZAFIRO,ALSINA 342,291,4523397,15,BUENOS AIRES,,,CooperativaObrera,-38.7154112,-62.2612079
BAHÍA BLANCA,JUGUETERÍA,GIRO DIDÁCTICO - ALSINA,ALSINA 280,291,5345658,10,BUENOS AIRES,,,CooperativaObrera,-38.7160761,-62.261937
BAHÍA BLANCA,JUGUETERÍA,PETIT GIRO DIDÁCTICO,LAMADRID 94,291,4551404,10,BUENOS AIRES,,,CooperativaObrera,-38.7158189,-62.2616029
BAHÍA BLANCA,LIBRERÍA,ALLIPEN,SAN MARTÍN 160,291,4501449,15,BUENOS AIRES,,,CooperativaObrera,-38.7183177,-62.2663478
BAHÍA BLANCA,LIBRERÍA,CASA MARINERO,ITALIA 702,291,4527568,15,BUENOS AIRES,,,CooperativaObrera,-38.7183177,-62.2663478
BAHÍA BLANCA,LIBRERÍA,HENRY LIBROS,ALSINA 27,291,4547975,15,BUENOS AIRES,,,CooperativaObrera,-38.7187528,-62.2647691
BAHÍA BLANCA,LIBRERÍA,INTERPRESENTES,FALUCHO 277,291,4816183,15,BUENOS AIRES,,,CooperativaObrera,-38.729898,-62.252406
BAHÍA BLANCA,LIBRERÍA,KLAS LIBROS,BROWN 426,291,4501464,15,BUENOS AIRES,,,CooperativaObrera,-38.723422,-62.2633728
BAHÍA BLANCA,LIBRERÍA,LA CASA DEL CARTUCHO,14 DE JULIO 391,291,4882000,15,BUENOS AIRES,,,CooperativaObrera,-38.727318,-62.2474379
BAHÍA BLANCA,LIBRERÍA,LA CASA DEL CARTUCHO,ESTOMBA 797,291,4882000,15,BUENOS AIRES,,,CooperativaObrera,-38.711452,-62.275099
BAHÍA BLANCA,MARROQUINERÍA,AGRESTE MARROQUINERÍA,O´HIGGINS 9,291,4557006,10,BUENOS AIRES,,,CooperativaObrera,-38.7191801,-62.2656918
BAHÍA BLANCA,MARROQUINERÍA,BAMBI EQUIPAJES,CHICLANA 140,291,4521254,10,BUENOS AIRES,,,CooperativaObrera,-38.7192482,-62.2646557
BAHÍA BLANCA,MARROQUINERÍA,CLOUDA,CHICLANA 162,291,4554188,10,BUENOS AIRES,,,CooperativaObrera,-38.7194757,-62.2645718
BAHÍA BLANCA,ÓPTICA,ALEJANDRA DI CROCE,ZELARRAYÁN 145,,,15,BUENOS AIRES,,,CooperativaObrera,-38.7156964,-62.2661276
BAHÍA BLANCA,ÓPTICA,CENTRO ÓPTICO ALSINA,ALSINA 91,291,4557433,15,BUENOS AIRES,,,CooperativaObrera,-38.7179279,-62.2638083
BAHÍA BLANCA,ÓPTICA,ÓPTICA 11 DE ABRIL 210,11 DE ABRIL 210,,,15,BUENOS AIRES,,,CooperativaObrera,-38.7123309,-62.2678968
BAHÍA BLANCA,ÓPTICA,ÓPTICA ANA DI SARNO,O'HIGGINS 2,291,154072986,15,BUENOS AIRES,,,CooperativaObrera,-38.719287,-62.265362
BAHÍA BLANCA,ÓPTICA,ÓPTICA BLACK & WHITE,BELGRANO 6,291,154072986,15,BUENOS AIRES,,,CooperativaObrera,-38.7197459,-62.2640686
BAHÍA BLANCA,PELUQUERÍA,JAF MODAS,VIEYTES 2441,,,15,BUENOS AIRES,,,CooperativaObrera,-38.6998452,-62.2945298
BAHÍA BLANCA,ZAPATERÍA,ATILA,DONADO 23,291,4517681,10,BUENOS AIRES,,,CooperativaObrera,-38.7202965,-62.2647915
BAHÍA BLANCA,ZAPATERÍA,EVA,AV. ARIAS 2138,291,4532047,10,BUENOS AIRES,,,CooperativaObrera,-38.7539808,-62.2645182
25 DE MAYO,REGALERÍA,NOVEDADES MIREN,AV. SAN MARTÍN 544,299,154021329,10,BUENOS AIRES,,,CooperativaObrera,-35.4334775,-60.1679967
9 DE JULIO,DEPORTE,ARIMA SPORT,VEDIA 718,2317,521520,15,BUENOS AIRES,slider-coopeplus2,https://www.nuevacardsa.com.ar/estudiantil/Basica.aspx,CooperativaObrera,-35.446605,-60.8829278
9 DE JULIO,DEPORTE,SUPPORT FITNET(ex ZEUS),LA RIOJA 1308,2317,520841,15,BUENOS AIRES,,,,-35.4439072,-60.8845528
9 DE JULIO,INDUMENTARIA,ALFIS JEANS,LA RIOJA 1279,2317,427364,15,BUENOS AIRES,,,,-35.4439072,-60.8845528
9 DE JULIO,INDUMENTARIA,EL BAGUAL,MITRE 1550,2317,423173,15,BUENOS AIRES,,,,-35.4439072,-60.8845528
9 DE JULIO,INDUMENTARIA,FULL SHOP,AV. VEDIA 755,2317,613922,15,BUENOS AIRES,,,,-35.4458492,-60.8827414
9 DE JULIO,INDUMENTARIA,KEVINGSTON,CAV.ALLARI 1399,2317,523949,15,BUENOS AIRES,,,,-35.4439072,-60.8845528
9 DE JULIO,INDUMENTARIA,MARÍA LUJÁN,ROBBIO 1552,2317,427201,15,BUENOS AIRES,,,,-35.4439072,-60.8845528
9 DE JULIO,INDUMENTARIA,PASIONES,ROBBIO 1546,2317,523651,15,BUENOS AIRES,,,,-35.4439072,-60.8845528
9 DE JULIO,LIBRERÍA,CARTAGO LIBROS,TUCUMÁN 904,2317,419518,15,BUENOS AIRES,,,,-34.5961933,-58.3823287
9 DE JULIO,LIBRERÍA,DULCINEA,ROBBIO 1227,2317,426439,15,BUENOS AIRES,,,,-35.4439072,-60.8845528
9 DE JULIO,LIBRERÍA,LA LIBRERÍA,E. RÍOS 1165,2317,522612,15,BUENOS AIRES,,,,-35.4439072,-60.8845528
9 DE JULIO,LIBRERÍA,STAAC,MITRE 1640,2317,424468,15,BUENOS AIRES,,,,-35.4439072,-60.8845528
9 DE JULIO,LIBRERÍA,TUPAC,VEDIA 525,2317,522889,15,BUENOS AIRES,,,,-35.4484865,-60.8809552
9 DE JULIO,ÓPTICA,ÓPTICA DEL SOL,MITRE 1434,2317,432423,15,BUENOS AIRES,,,,-35.4439072,-60.8845528
9 DE JULIO,ÓPTICA,ÓPTICA REY,LA RIOJA 1075,2317,520055,15,BUENOS AIRES,,,,-35.4439072,-60.8845528
9 DE JULIO,ÓPTICA,PRADELLI,ROBBIO 813,2317,524388,15,BUENOS AIRES,,,,-35.4439072,-60.8845528
ALLEN,INDUMENTARIA,BEAUTIFUL SIN LÍMITES,SAN MARTÍN 412,298,154403002,15,RÍO NEGRO,slider-coopeplus3,https://www.tarjetabbps.com.ar/,CooperativaObrera,-38.9792952,-67.8237307
ALLEN,INDUMENTARIA,BRUNO SPORT´S,AV. ROCA 6,298,4450068,15,RÍO NEGRO,,,,-38.9769908,-67.8295587
ALLEN,INDUMENTARIA,DAN-SIL,TOMÁS ORELL 252,298,4450021,15,RÍO NEGRO,,,,-38.9778831,-67.8260451
ALLEN,INDUMENTARIA,FASHION LOVER,TOMÁS ORELL 269,298,154643858,15,RÍO NEGRO,,,,-38.9782292,-67.8258266
ALLEN,INDUMENTARIA,KOKOMO,AV. ROCA 455,298,4452076,15,RÍO NEGRO,,,,-38.9815183,-67.831014
ALLEN,INDUMENTARIA,LOREDANA,AV. ROCA 301,298,4451827,15,RÍO NEGRO,,,,-38.9797992,-67.830501
ALLEN,INDUMENTARIA,LUZ SPORT,TOMÁS ORELL 279,298,4453027,15,RÍO NEGRO,,,,-38.9782498,-67.8256762
ALLEN,INDUMENTARIA,PANGUI,AV. ROCA 208,298,4450167,15,RÍO NEGRO,,,,-38.9788018,-67.8300359
ALLEN,INDUMENTARIA,SAN LUIS OFERTAS,TOMÁS ORELL 272,298,4452490,15,RÍO NEGRO,,,,-38.9778704,-67.8257512
ALLEN,INDUMENTARIA,TODO DEPORTE,AV. ROCA 107,298,4451865,15,RÍO NEGRO,,,,-38.9775402,-67.8301245
ALLEN,INDUMENTARIA,VALE MODAS,TOMÁS ORELL 49,298,154338020,15,RÍO NEGRO,,,,-38.9778499,-67.8291536
ALLEN,JOYERÍA Y RELOJERÍA,JOYERÍA Y RELOJERÍA AMATISTA,TOMÁS ORELL 290,298,4450186,15,RÍO NEGRO,,,,-38.9780045,-67.8251944
ALLEN,LIBRERÍA,LIBRERÍA CASA SÁNCHEZ,TOMÁS ORELL 124,298,4453514,15,RÍO NEGRO,,,,-38.9776871,-67.8280405
ALLEN,LIBRERÍA,MUNDO ESCOLAR,AV. ROCA 258,298,154638114,15,RÍO NEGRO,,,,-38.9793542,-67.8300825
ALLEN,ÓPTICA,ÓPTICA JAVIER PARODI,AV. ROCA 59,298,4451073,15,RÍO NEGRO,,,,-38.9772515,-67.8300774
ALLEN,PELUQUERÍA,JUBELLA HAIR,INTENDENTE MARIANI 382,298,476013,15,RÍO NEGRO,,,,-38.9770461,-67.8354384
ALUMINE,INDUMENTARIA,MIS AMORES BOUTIQUE,JULIA DÍAZ 7,2942,15693430,15,Neuquén,,,,-39.2400016,-70.924013
AÑELO,ÓPTICA,ÓPTICA WOLF CENTER-AÑELO,CALLE Nº 1 - MZA. 39 - LOTE 5,299,154088877,15,Neuquén,,,,-38.3516044,-68.7874869
ANDACOLLO,INDUMENTARIA,TENDENCIAS,AV. CORDILLERA DEL VIENTO 250,2942,663362,15,Neuquén,,,,-37.1797391,-70.6700266
AZUL,DEPORTE,EL BUSCAPIÉ,SAN MARTÍN 540,2281,432002,15,BUENOS AIRES,,,,-36.7790587,-59.8620196
AZUL,DEPORTE,PUNTO MODA,MORENO 648,2281,314174,15,BUENOS AIRES,,,,-36.7792338,-59.8618239
AZUL,DEPORTE,AMSTERDAM,SAN MARTÍN 536,2281,657100,15,BUENOS AIRES,,,,-36.7790525,-59.8620288
AZUL,INDUMENTARIA,ALFIS JEANS,H. YRIGOYEN 579,2494,634262,15,BUENOS AIRES,,,,-36.7791057,-59.860707
AZUL,INDUMENTARIA,CASA TOSCANO,H. YRIGOYEN 592,2281,426535,15,BUENOS AIRES,,,,-36.7791865,-59.8603472
AZUL,INDUMENTARIA,CATALDO HOMBRES,H. YRIGOYEN 516,2281,435483,15,BUENOS AIRES,,,,-36.7782144,-59.8615946
AZUL,INDUMENTARIA,CHE BERLÍN,SAN MARTÍN 590,2281,633996,15,BUENOS AIRES,,,,-36.7799854,-59.8610903
AZUL,INDUMENTARIA,DANIEL BASIC,SAN MARTÍN 512,2281,428033,15,BUENOS AIRES,,,,-36.7788354,-59.8624317
AZUL,INDUMENTARIA,EL GALPÓN,SAN MARTÍN 596,2281,585385,15,BUENOS AIRES,,,,-36.7798539,-59.8609759
AZUL,INDUMENTARIA,HAMACA,AMADO DÍA 379,2281,479534,15,BUENOS AIRES,,,,-36.7785244,-59.8495547
AZUL,INDUMENTARIA,HAMSTER´S,H. YRIGOYEN 629,2281,426865,15,BUENOS AIRES,,,,-36.7799154,-59.8596641
AZUL,INDUMENTARIA,IS,MORENO 655,,,15,BUENOS AIRES,,,,-36.7795869,-59.8618075
AZUL,INDUMENTARIA,JOSEFINA TRONCOSO,BOLÍVAR 599,2281,427029,15,BUENOS AIRES,,,,-36.7807061,-59.8619278
AZUL,INDUMENTARIA,KEVINGSTON,SAN MARTÍN 399,2281,433502,15,BUENOS AIRES,,,,-36.7774986,-59.8644548
AZUL,INDUMENTARIA,LA BAHÍA,MORENO 693,2281,430523,15,BUENOS AIRES,,,,-36.7799757,-59.8623324
AZUL,INDUMENTARIA,LA GOLONDRINA,SAN MARTÍN 951,2281,425018,15,BUENOS AIRES,,,,-36.7846072,-59.8553912
AZUL,INDUMENTARIA,LUZ DE LUNA,BURGOS NORTE 600,2281,657618,15,BUENOS AIRES,,,,-36.761665,-59.843708
AZUL,INDUMENTARIA,MAURO SERGIO,COMERCIO 598,2281,407818,15,BUENOS AIRES,,,,-36.7749672,-59.8540382
AZUL,INDUMENTARIA,MEGARRUBROS VALENTINO,BURGOS NORTE 88,2281,660370,15,BUENOS AIRES,,,,-36.7680643,-59.8516746
AZUL,INDUMENTARIA,MISTRAL-AZUL,AV. 25 DE MAYO 611,2281,422144,15,BUENOS AIRES,,,,-36.779775,-59.8601628
AZUL,INDUMENTARIA,NELSON JEANS,MORENO 639,2281,419067,15,BUENOS AIRES,,,,-36.7792741,-59.8613797
AZUL,INDUMENTARIA,ODISEA DEPORTES,AV. PERÓN 445,2281,593384,15,BUENOS AIRES,,,,-36.7808205,-59.8668765
AZUL,INDUMENTARIA,PILCHERÍA Y R. KARY,SAN MARTÍN 1358,2281,584071,15,BUENOS AIRES,,,,-36.7900297,-59.8476664
AZUL,INDUMENTARIA,Q2,AMADO DIAB 379,2281,570568,15,BUENOS AIRES,,,,-36.7718916,-59.8581896
AZUL,INDUMENTARIA,SKB,H. YRIGOYEN 649,2281,534300,15,BUENOS AIRES,,,,-36.7801106,-59.8593062
AZUL,INDUMENTARIA,SPRING CREEK,ROCA 557,2281,504128,15,BUENOS AIRES,,,,-36.7946377,-59.8468724
AZUL,INDUMENTARIA,SUMMER TIME,SAN MARTÍN 685,2281,502217,15,BUENOS AIRES,,,,-36.7811313,-59.8596627
AZUL,INDUMENTARIA,TERCER TIEMPO,H. YRIGOYEN 695,2281,426724,15,BUENOS AIRES,,,,-36.78067,-59.8586632
AZUL,INDUMENTARIA,TIENDA TOLY,ARENALES 859,2281,656868,15,BUENOS AIRES,,,,-36.7843446,-59.86253
AZUL,INDUMENTARIA,YO QUE C,SAN MARTÍN 518,2281,429283,15,BUENOS AIRES,,,,-36.7788346,-59.8622523
AZUL,INDUMENTARIA,9 LUNAS HOMBRES,CANEVA 796,2281,589250,15,BUENOS AIRES,,,,-36.7870439,-59.8564135
AZUL,INDUMENTARIA,JUAN SIN TIERRA,SAN MARTÍN 629,2281,664785,15,BUENOS AIRES,,,,-36.7805997,-59.8605339
AZUL,JOYERÍA Y RELOJERÍA,AMETYST JOYAS,H. YRIGOYEN 554,2281,423614,15,BUENOS AIRES,,,,-36.7787908,-59.8607554
AZUL,LIBRERÍA,L´ATELIER,AV. MITRE 534,2281,499311,15,BUENOS AIRES,,,,-36.7769849,-59.8595042
AZUL,LIBRERÍA,LA LIBRERÍA,H. YRIGOYEN 546,2281,429801,15,BUENOS AIRES,,,,-36.7785924,-59.8610941
AZUL,LIBRERÍA,LIBRERÍA IDEAS,H. YRIGOYEN 523,2281,427070,15,BUENOS AIRES,,,,-36.7785102,-59.8614943
AZUL,LIBRERÍA,LIBRERÍA KRAFT,BURGOS 813,2281,606018,15,BUENOS AIRES,,,,-36.7804272,-59.8659233
AZUL,LIBRERÍA,ND ARTÍSTICA,SAN MARTÍN 648,2281,681910,15,BUENOS AIRES,,,,-36.7805549,-59.8599386
AZUL,ÓPTICA,DI LORENZO FOTOS,SAN MARTÍN 750,2281,423201,15,BUENOS AIRES,,,,-36.7818119,-59.8584161
AZUL,ÓPTICA,ÓPTICA HESAYNE,MORENO 553,2281,582964,15,BUENOS AIRES,,,,-36.7782457,-59.8602694
AZUL,ÓPTICA,VISION CENTER,SAN MARTÍN 573,2281,423730,15,BUENOS AIRES,,,,-36.7797776,-59.8615714
BATAN,INDUMENTARIA,BATIK,COLECTORA Y EMILIO LARRAYA,223,155996403,15,BUENOS AIRES,,,,-38.0012221,-57.7172965
BATAN,INDUMENTARIA,JACINTA,COLECTORA Y EMILIO LARRAYA,223,4646139,15,BUENOS AIRES,,,,-38.0012221,-57.7172965
BATAN,INDUMENTARIA,MIMATE,CALLE 33 ENTRE 46 Y 48,223,155413802,15,BUENOS AIRES,,,,-38.0100753,-57.710544
BENITO JUÁREZ,DEPORTE,CENTER SPORT,AV. LIBERTAD 228,,,15,BUENOS AIRES,,,,-37.6706202,-59.8088736
BENITO JUÁREZ,FARMACIA,FARMACIA GARAMENDY,AV. LIBERTAD 52,2292,452258,10,BUENOS AIRES,,,,-37.6728988,-59.8060053
BENITO JUÁREZ,INDUMENTARIA,1986 DEPORTES,AV. SAN MARTÍN 23,2292,454823,15,BUENOS AIRES,,,,-37.673632,-59.8053535
BENITO JUÁREZ,INDUMENTARIA,CONFECCIONES SONIA,9 DE JULIO 360,2292,451234,15,BUENOS AIRES,,,,-37.6705716,-59.8134346
BENITO JUÁREZ,INDUMENTARIA,E! MAN,ZIBECHI 16,2292,454243,15,BUENOS AIRES,,,,-37.6743158,-59.8048962
BENITO JUÁREZ,INDUMENTARIA,GUAPA´S,GRAL. PAZ 213,,,15,BUENOS AIRES,,,,-37.6799557,-59.8061068
BENITO JUÁREZ,INDUMENTARIA,LA PULGA LOCA,AV. LIBERTAD 65,,,15,BUENOS AIRES,,,,-37.6724545,-59.8056919
BENITO JUÁREZ,INDUMENTARIA,LA SEÑORA DE LOS COLLARES,ZIBECHI 26,,,15,BUENOS AIRES,,,,-37.6743158,-59.8048962
BENITO JUÁREZ,INDUMENTARIA,LE MON,AV. LIBERTAD 73,2292,454126,15,BUENOS AIRES,,,,-37.6723682,-59.8057987
BENITO JUÁREZ,INDUMENTARIA,MASIVO,AV. LIBERTAD 7,2292,451669,15,BUENOS AIRES,,,,-37.6732749,-59.8046863
BENITO JUÁREZ,INDUMENTARIA,PASEO ALAK,PUMARÁ Y ZABALZA,,,15,BUENOS AIRES,,,,-37.6711739,-59.8102562
BENITO JUÁREZ,INDUMENTARIA,RODRIGGI,AV. ZABALZA 381,,,15,BUENOS AIRES,,,,-37.6692009,-59.8122283
BENITO JUÁREZ,INDUMENTARIA,TAYSIR MODAS,AV. MUÑIZ 129,,,15,BUENOS AIRES,,,,-37.6797406,-59.8027231
BENITO JUÁREZ,LIBRERÍA,LA LIBRERÍA,AV. LIBERTAD 125,2292,452915,15,BUENOS AIRES,,,,-37.6717171,-59.806677
BENITO JUÁREZ,MÚSICA,CHALA´S,AV. LIBERTAD 141,2292,451409,10,BUENOS AIRES,,,,-37.6714122,-59.8070424
BENITO JUÁREZ,ÓPTICA,ÓPTICA HORIZONTE,AV. LIBERTAD 45,2292,451512,15,BUENOS AIRES,,,,-37.6727547,-59.8053442
BENITO JUÁREZ,ZAPATERÍA,CALZADOS CARIOCA,AV. LIBERTAD 137,2292,454502,10,BUENOS AIRES,,,,-37.6716287,-59.8067838
BENITO JUÁREZ,ZAPATERÍA,VALENTINO CALZ Y ACC,ZIBECHI 16,,,10,BUENOS AIRES,,,,-37.6743158,-59.8048962
BOLÍVAR,DEPORTE,BRO TIENDA RUN,AV. SAN MARTÍN 1233,2314,461816,15,BUENOS AIRES,,,,-36.226514,-61.1189558
BOLÍVAR,DEPORTE,SIN LÍMITE,AV. SAN MARTÍN 295,2314,411974,15,BUENOS AIRES,,,,-36.2335869,-61.1097553
BOLÍVAR,INDUMENTARIA,CAPRICHOSAS,GÜEMES 32,2314,576397,15,BUENOS AIRES,,,,-36.2318777,-61.1117542
BOLÍVAR,INDUMENTARIA,DANIEL BÁSICO,AV. SAN MARTÍN 421,2314,619241,15,BUENOS AIRES,,,,-36.2326866,-61.1111045
BOLÍVAR,INDUMENTARIA,ISIDORO MIX,AV. SAN MARTÍN 590,2314,620408,15,BUENOS AIRES,,,,-36.2317505,-61.1130726
BOLÍVAR,INDUMENTARIA,MODAS NORMA,FABRES GARCÍA 21,2314,424138,15,BUENOS AIRES,,,,-36.241781,-61.1146135
BOLÍVAR,INDUMENTARIA,RECORD,LAS HERAS 33,2314,410893,15,BUENOS AIRES,,,,-36.2316457,-61.1134261
BOLÍVAR,INDUMENTARIA,SENDEROS,SARGENTO CABRAL 17,2314,628715,15,BUENOS AIRES,,,,-36.2304165,-61.1160903
BOLÍVAR,INDUMENTARIA,SUPER CENTRO TEXTIL,AV. SAN MARTÍN 451,2314,473573,15,BUENOS AIRES,,,,-36.2324084,-61.1113208
BOLÍVAR,INDUMENTARIA,SYMBOL,AV. SAN MARTÍN 370,2314,463722,15,BUENOS AIRES,,,,-36.2332574,-61.1108865
BOLÍVAR,LIBRERÍA,LIBRERÍA ABC,LAS HERAS 102,2314,424176,15,BUENOS AIRES,,,,-36.2322748,-61.1138867
BOLÍVAR,LIBRERÍA,LIBRERÍA TA-TE-TI,BALCARCE 200,2314,421167,15,BUENOS AIRES,,,,-36.2313433,-61.1091193
BOLÍVAR,LIBRERÍA,MUNDO GURÍ,AV. ALSINA 619,2314,480129,15,BUENOS AIRES,,,,-36.2303279,-61.1120167
CARHUÉ,DEPORTE,UNIKO,SAN MARTÍN 735,2936,432368,15,BUENOS AIRES,,,,-37.1775398,-62.7567885
CARHUÉ,INDUMENTARIA,EL TÚNEL,COLÓN 1117,2936,411129,15,BUENOS AIRES,,,,-37.1766158,-62.7594376
CARHUÉ,INDUMENTARIA,ISABELLA CARHUÉ,PRINGLES 1365,2936,411197,15,BUENOS AIRES,,,,-37.1725195,-62.7597741
CARHUÉ,INDUMENTARIA,LAS GLORIETAS,COLÓN 1100,2923-,641522,15,BUENOS AIRES,,,,-37.1769395,-62.7594967
CARHUÉ,INDUMENTARIA,MARCO POLO,COLÓN 1138,2936,432419,15,BUENOS AIRES,,,,-37.1767642,-62.7600681
CARHUÉ,INDUMENTARIA,PAMPERO CARHUÉ,COLÓN 977,2936,406263,15,BUENOS AIRES,,,,-37.1776456,-62.7577574
CARHUÉ,INDUMENTARIA,YG INDUMENTARIA,COLÓN 1177,2923,696546,15,BUENOS AIRES,,,,-37.1762403,-62.7600377
CARHUÉ,ÓPTICA,ÓPTICA PRISMA,MORENO 365,2936,412577,15,BUENOS AIRES,,,,-37.173116,-62.7560422
CARILÓ,BAZAR Y DECORACIÓN,LA CUCHILLERÍA,BOYERO 1498 L2,11,57539177,10,BUENOS AIRES,,,,-37.1661432,-56.9030046
CARILÓ,ÓPTICA,LENS VISION II,BOYERO 1498 L30,2254,425637,15,BUENOS AIRES,,,,-37.1661432,-56.9030046
CARMEN DE PATAGONES,INDUMENTARIA,IVANA,ALSINA 75,2920,464380,15,BUENOS AIRES,,,,-40.8011795,-62.9834095
CARMEN DE PATAGONES,ÓPTICA,PATAGONIA BUENA VISTA,COMODORO RIVADAVIA 329,2920,15608006,15,BUENOS AIRES,,,,-40.7999947,-62.9820342
CASBAS,INDUMENTARIA,LOLO'S,SAN MARTÍN 420,2923,462722,15,BUENOS AIRES,,,,-36.7590314,-62.5017783
CASBAS,INDUMENTARIA,VEREDA DEL SOL,SAN MARTÍN 571,2929,481096,15,BUENOS AIRES,,,,-36.7590314,-62.5017783
CATRIEL,MULTIRRUBRO,LA CONFIANZA,AV. DEL TRABAJO Y AFGANISTÁN,299,4914680,10,RÍO NEGRO,,,,-37.8732575,-67.7986372
CATRIEL,INDUMENTARIA,AMANKAY,AV. SAN MARTÍN 225,299,4914383,15,RÍO NEGRO,,,,-37.8804859,-67.7947502
CATRIEL,INDUMENTARIA,CREACIONES NAHUEL,CLEMENTE ZURITA 398,299,4914607,15,RÍO NEGRO,,,,-37.8824934,-67.8016834
CATRIEL,PELUQUERÍA,MIGUEL ANGEL,AV. SAN MARTÍN 649,299,4911041,15,RÍO NEGRO,,,,-37.8843784,-67.8019995
CATRIEL,REGALERÍA,CATRIEL III,HIPÓLITO YRIGOYEN 410,299,4913098,10,RÍO NEGRO,,,,-37.8860143,-67.7916486
CATRIEL,REGALERÍA,NOVEDADES MIREN,AV. SAN MARTÍN 544,299,154021329,10,RÍO NEGRO,,,,-37.884042,-67.8011473
CATRIEL,ZAPATERÍA,ZAPATERÍA AVENIDA,AV. SAN MARTÍN 486,299,4911189,10,RÍO NEGRO,,,,-37.8840558,-67.8011733
CATRIEL,ZAPATERÍA,CALZADOS MALU,AV. ROCA 694,299,4911240,10,RÍO NEGRO,,,,-37.8825999,-67.79591
CENTENARIO,DEPORTE,AEROBIC DEPERTES,HONDURAS 641,299,4898147,15,Neuquén,,,,-38.828086,-68.1345837
CENTENARIO,DEPORTE,MUNDO SPORT,HONDURAS Y NICARAGUA,299,4898792,15,Neuquén,,,,-38.8248649,-68.1389132
CENTENARIO,INDUMENTARIA,CACTUS,HONDURAS 741,299,4894983,15,Neuquén,,,,-38.8275361,-68.1354044
CENTENARIO,INDUMENTARIA,CAOS OUTFITTERS,HONDURAS 633,299,4876675,15,Neuquén,,,,-38.8281646,-68.1345012
CENTENARIO,INDUMENTARIA,HOMO,HONDURAS 820,299,4874898,15,Neuquén,,,,-38.826606,-68.1360849
CENTENARIO,INDUMENTARIA,MARILI,HONDURAS Y BUENOS AIRES,299,4898334,15,Neuquén,,,,-38.8293339,-68.1367515
CENTENARIO,INDUMENTARIA,NATTIVO,HONDURAS 1030,299,4895186,15,Neuquén,,,,-38.8250894,-68.1382748
CENTENARIO,INDUMENTARIA,PRECIOS MÁGICOS,HONDURAS 449,299,4114352,15,Neuquén,,,,-38.8292531,-68.1324819
CENTENARIO,INDUMENTARIA,QUÉ ME PONGO,AV. 25 DE MAYO72,299,4892716,15,Neuquén,,,,-38.8360598,-68.134606
CENTENARIO,INDUMENTARIA,RANCH,SAN MARTÍN 264,299,4891301,15,Neuquén,,,,-38.827752,-68.1442932
CENTENARIO,INDUMENTARIA,VANS STYLE,PERÚ 331,299,6061004,15,Neuquén,,,,-38.8296595,-68.1355725
CENTENARIO,ÓPTICA,ÓPTICA WOLF CENTER,HONDURAS 750,299,4893530,15,Neuquén,,,,-38.8272204,-68.1352465
CENTENARIO,REGALERÍA,GIRASOL,ATAHUALPA YUPANQUI 511,299,4897454,10,Neuquén,,,,-38.8197408,-68.1457149
CHOELE CHOEL,DEPORTE,ACQUA -CHOELE CHOEL,AVELLANEDA 710,2984,560312,15,RÍO NEGRO,,,,-39.2909337,-65.6617996
CHOELE CHOEL,DEPORTE,AMESTOY DEPORTES,AVELLANEDA 1136,2984,588317,15,RÍO NEGRO,,,,-39.2940809,-65.6580804
CHOELE CHOEL,INDUMENTARIA,CATRINAS,ALSINA 979,2946,442131,15,RÍO NEGRO,,,,-39.2923567,-65.6588986
CHOELE CHOEL,INDUMENTARIA,IOSSI CREACIONES,AVELLANEDA 335,2946,442037,15,RÍO NEGRO,,,,-39.288046,-65.6659278
CHOELE CHOEL,INDUMENTARIA,KLEIDER,AVELLANEDA 910,2984,815606,15,RÍO NEGRO,,,,-39.2925467,-65.6603515
CHOELE CHOEL,INDUMENTARIA,LA ECONÓMICA-CHOELE CHOEL,25 DE MAYO 201,2946,442446,15,RÍO NEGRO,,,,-39.2956253,-65.654848
CHOELE CHOEL,INDUMENTARIA,MIR - MAR CALZADOS,AVELLANEDA ESQUINA J. A. ROCA 0,2946,442423,15,RÍO NEGRO,,,,-39.2907407,-65.6578065
CHOELE CHOEL,INDUMENTARIA,OUTLET MIR-MAR,AVELLANEDA 935,2946,442423,15,RÍO NEGRO,,,,-39.2926821,-65.6601867
CHOELE CHOEL,INDUMENTARIA,ÓXIDO INDUMENTARIA,NICOLÁS AVELLANEDA 816,2946,443564,15,RÍO NEGRO,,,,-39.2918589,-65.6608543
CHOELE CHOEL,INDUMENTARIA,OASIS,AVELLANEDA 537,2984,565038,15,RÍO NEGRO,,,,-39.2895363,-65.6639726
CHOELE CHOEL,INDUMENTARIA,FRIDA INDUMENTARIA UNISEX,AVELLANEDA 605,2984,314815,15,RÍO NEGRO,,,,-39.2902567,-65.6633034
CHOELE CHOEL,JOYERÍA Y RELOJERÍA,ZAKARIAS,AVELLANEDA 685,2946,402464,15,RÍO NEGRO,,,,-39.2906849,-65.6627114
CHOELE CHOEL,LIBRERÍA,MANA,AVELLANEDA 1026,2984,224148,15,RÍO NEGRO,,,,-39.2932161,-65.6591193
CHOELE CHOEL,ÓPTICA,ÓPTICA VALLE MEDIO,AVELLANEDA 660,2984,282589,15,RÍO NEGRO,,,,-39.2904177,-65.6625837
CHOELE CHOEL,ÓPTICA,OPTILENS,A. ALSINA 1009,2946,442560,15,RÍO NEGRO,,,,-39.2928183,-65.6584972
CHOELE CHOEL,ÓPTICA,VES CHOELE,KENNEDY 705,2946,902706,15,RÍO NEGRO,,,,-39.2893209,-65.6623091
CHOS MALAL,BAZAR Y DECORACIÓN,"1,2,2003",SARMIENTO 290,2948,15413617,10,Neuquén,,,,-37.3763396,-70.2740966
CHOS MALAL,INDUMENTARIA,CASA BETTY,GRAL. PAZ Y ROCA 0,2948,421180,15,Neuquén,,,,-37.3770546,-70.2747212
CHOS MALAL,INDUMENTARIA,ENIGMATIC,ROCA Y SARMIENTO 0,2948,422686,15,Neuquén,,,,-37.3741206,-70.2765598
CHOS MALAL,INDUMENTARIA,MODAS CINTIA,SARMIENTO 336,2942,15522637,15,Neuquén,,,,-37.3767364,-70.2735021
CHOS MALAL,INDUMENTARIA,TIENDA KIKA,SARMIENTO 423,2942,15695742,15,Neuquén,,,,-37.377179,-70.2725794
CHOS MALAL,INDUMENTARIA,LUCIANA VUOTTO,SARMIENTO Y LAVALLE,2948,423509,15,Neuquén,,,,-37.3770847,-70.272907
CHOS MALAL,INDUMENTARIA,SOUL NORTE NEUQUINO,GRAL. PAZ 585,2948,421256,15,Neuquén,,,,-37.377577,-70.270087
CHOS MALAL,LIBRERÍA,CASTEL,SARMIENTO 217,2942,15402310,15,Neuquén,,,,-37.375582,-70.2744322
CHOS MALAL,ÓPTICA,ÓPTICA WAYLE,LAV.ALLE 193,2942,15472692,15,Neuquén,,,,-37.3763426,-70.2721535
CINCO SALTOS,DEPORTE,OLIMIPA III,ROCA Y DON BOSCO,299,4214750,15,RÍO NEGRO,,,,-38.8309486,-68.0678384
CINCO SALTOS,INDUMENTARIA,BALEKIAN,RIVADAVIA 585,298,4791787,15,RÍO NEGRO,,,,-38.827792,-68.0679876
CINCO SALTOS,INDUMENTARIA,BLACK BIRD,RIVADAVIA 325,299,5877585,15,RÍO NEGRO,,,,-38.8295626,-68.0660789
CINCO SALTOS,INDUMENTARIA,PUNTO TEENS,RIVADAVIA 604,299,6150666,15,RÍO NEGRO,,,,-38.8278926,-68.068375
CINCO SALTOS,INDUMENTARIA,STOP,AVENIDA ROCA 850,299,4984336,15,RÍO NEGRO,,,,-38.8248526,-68.0684543
CINCO SALTOS,INDUMENTARIA,TIENDA ERLIN,AV. BLUMETTI 258,,,15,RÍO NEGRO,,,,-38.8231495,-68.0651351
CINCO SALTOS,LIBRERÍA,LIBROCINCO,AVENIDA BLUMETTI 350,299,4981251,15,RÍO NEGRO,,,,-38.8226748,-68.064309
CINCO SALTOS,ÓPTICA,ÓPTICA CINCO SALTOS,AVENIDA ROCA 590,299,4982328,15,RÍO NEGRO,,,,-38.8268326,-68.0663002
CINCO SALTOS,PELUQUERÍA,VIDAL ORTIZ ESTILISTAS,SARMIENTO Y AMEGHINO,299,4981691,15,RÍO NEGRO,,,,-38.8268148,-68.0705664
CINCO SALTOS,ZAPATERÍA,CALZADOS LA ROCA,AVENIDA ROCA 985,299,4984084,10,RÍO NEGRO,,,,-38.824013,-68.0685451
CIPOLLETTI,ARTÍCULOS DE CAMPING Y PESCA,S.E.A PESCA,BRENTANA 508,299,155978517,15,RÍO NEGRO,,,,-38.9346662,-67.9877051
CIPOLLETTI,BICICLETERÍA,BICICLETERÍA AVENIDA,NACIONES UNIDAS 534,299,156355940,10,RÍO NEGRO,,,,-38.9386875,-67.9793834
CIPOLLETTI,DEPORTE,G Y C SPORT,ROCA 119,299,4773303,15,RÍO NEGRO,,,,-38.9384541,-68.0001407
CIPOLLETTI,DEPORTE,OLIMPIA,ROCA Y ESPAÑA,299,155682000,15,RÍO NEGRO,,,,-38.9391644,-67.9963253
CIPOLLETTI,DEPORTE,OLIMPIA I,ROCA E ITALIA,299,4770034,15,RÍO NEGRO,,,,-38.9399584,-67.992241
CIPOLLETTI,DEPORTE,OLIMPIA II,ESMERALDA 1102,299,4771874,15,RÍO NEGRO,,,,-38.92865,-67.990718
CIPOLLETTI,INDUMENTARIA,AVIKUKY,YRIGOYEN 810,299,4781502,15,RÍO NEGRO,,,,-38.9391639,-67.9902523
CIPOLLETTI,INDUMENTARIA,ERIMAX SPORT UNISEX,HIPÓLITO YRIGOYEN 700,299,4782306,15,RÍO NEGRO,,,,-38.9388721,-67.9916589
CIPOLLETTI,INDUMENTARIA,MR POPE,ROCA 323,299,155556862,15,RÍO NEGRO,,,,-38.9390961,-67.9974623
CIPOLLETTI,INDUMENTARIA,PRECIOS MÁGICOS,SAN MARTÍN 367,299,4470046,15,RÍO NEGRO,,,,-38.938771,-67.9954929
CIPOLLETTI,INDUMENTARIA,ROCIO TIENDA Y ZAPATERÍA,DON BOSCO 1650,299,154733619,15,RÍO NEGRO,,,,-38.9230913,-67.9877378
CIPOLLETTI,INDUMENTARIA,UNELEN,SÁENZ PEÑA E IRIGOYEN,299,4770335,15,RÍO NEGRO,,,,-38.9392056,-67.990536
CIPOLLETTI,INDUMENTARIA,SOCO,NACIONES UNIDAS 675,299,4773417,15,RÍO NEGRO,,,,-38.9351286,-67.9790741
CIPOLLETTI,JOYERÍA Y RELOJERÍA,JOYERÍA Y RELOJERÍA AMATISTA I,BRENTANA 160,299,156036007,15,RÍO NEGRO,,,,-38.9346662,-67.9877051
CIPOLLETTI,JOYERÍA Y RELOJERÍA,JOYERÍA Y RELOJERÍA DANIEL´S,ESPAÑA 335,299,4774936,15,RÍO NEGRO,,,,-38.9376462,-67.9957085
CIPOLLETTI,ÓPTICA,ÓPTICA WOLF,ROCA 340,299,156373116,15,RÍO NEGRO,,,,-38.9387925,-67.9971223
CIPOLLETTI,PINTURERÍA,MEDITERRÁNEA,AVENIDA ALEM 1138,299,4770571,10,RÍO NEGRO,,,,-38.9377945,-67.9848961
CIPOLLETTI,PINTURERÍA,MEDITERRÁNEA I,MENGUELLE Y LAV.ALLE 0,299,4771971,10,RÍO NEGRO,,,,-38.9296737,-67.9988342
CIPOLLETTI,REPUESTOS DE MOTOS,MOTOS RIUZ,TENIENTE IBAÑEZ Y SARMIENTO,299,4776588,10,RÍO NEGRO,,,,-38.9354305,-67.9920905
CIPOLLETTI,TALABARTERÍA,SU TALABARTERÍA,9 DE JULIO 616,299,4775916,10,RÍO NEGRO,,,,-38.9375023,-67.9925578
COMODORO RIVADAVIA,INDUMENTARIA,CALIFORNIA,SAN MARTÍN 689,297,155934510,15,Chubut,,,,-45.8611714,-67.4843627
COMODORO RIVADAVIA,INDUMENTARIA,CARA O CRUZ,SAN MARTÍN 457,,,15,Chubut,,,,-45.8609534,-67.4808109
COMODORO RIVADAVIA,INDUMENTARIA,GUAPAS & GUAPOS,SAN MARTÍN 295,297,4444436,15,Chubut,,,,-45.8609674,-67.4782542
COMODORO RIVADAVIA,INDUMENTARIA,MARIETE MODAS,FRANCISCO DE VIEDMA,297,4550070,15,Chubut,,,,-45.8333174,-67.4785933
COMODORO RIVADAVIA,INDUMENTARIA,SOHO POINT,SAN MARTÍN 620,297,155934510,15,Chubut,,,,-45.8611922,-67.483536
COMODORO RIVADAVIA,INDUMENTARIA,SUPERANDO LÍMITES,SAN MARTÍN 281,297,155159517,15,Chubut,,,,-45.8609161,-67.4780619
COMODORO RIVADAVIA,INDUMENTARIA,CALIFORNIA,SAN MARTÍN 689,297,155934510,15,Chubut,,,,-45.8611714,-67.4843627
COMODORO RIVADAVIA,INDUMENTARIA,CARA O CRUZ,SAN MARTÍN 457,,,15,Chubut,,,,-45.8609534,-67.4808109
COMODORO RIVADAVIA,INDUMENTARIA,TIENDA ELSI,AV. TEHUELCHE 119,297,4550382,,Chubut,,,,-45.83537,-67.4782841
COMODORO RIVADAVIA,ÓPTICA,ÓPTICA GRECO,ESPAÑA 888,297,4471162,15,Chubut,,,,-45.8612854,-67.4862647
COMODORO RIVADAVIA,ÓPTICA,ÓPTICA VISIÓN,SAN MARTÍN 382,297,4463697,15,Chubut,,,,-45.8612145,-67.4795719
CORONEL DORREGO,BEBÉS Y NIÑOS,APACHURRABLES,IRIGOYEN 589,,,10,BUENOS AIRES,,,,-38.7170346,-61.2894208
CORONEL DORREGO,INDUMENTARIA,ATOBA REPUBLIC,SAN MARTÍN 681,2921,409967,15,BUENOS AIRES,,,,-38.7172559,-61.2897675
CORONEL DORREGO,INDUMENTARIA,CASA LARROUY,SAN MARTÍN 547,2921,405385,15,BUENOS AIRES,,,,-38.7161053,-61.2912261
CORONEL DORREGO,INDUMENTARIA,COMO TE QUIERO,IRIGOYEN 347,2921,409824,15,BUENOS AIRES,,,,-38.7153097,-61.2870964
CORONEL DORREGO,INDUMENTARIA,COMO TE QUIERO,IRIGOYEN 615,2921,409824,15,BUENOS AIRES,,,,-38.7171972,-61.2896734
CORONEL DORREGO,INDUMENTARIA,EL JARDÍN,LEQUERICA 549,2921,406214,15,BUENOS AIRES,,,,-38.7175232,-61.2931146
CORONEL DORREGO,INDUMENTARIA,ESTILO CAMPO,SAN MARTÍN 641,2921,405902,15,BUENOS AIRES,,,,-38.7169952,-61.2901534
CORONEL DORREGO,INDUMENTARIA,HOY TE TOCA,SANTAGADA 1257,2921,406023,15,BUENOS AIRES,,,,-38.7224415,-61.2849828
CORONEL DORREGO,INDUMENTARIA,JAZMÍN,SAN MARTÍN 583,2921,406504,15,BUENOS AIRES,,,,-38.7164541,-61.2907777
CORONEL DORREGO,INDUMENTARIA,LA FLORIDA,SIRIA 445,2921,405260,15,BUENOS AIRES,,,,-38.7142387,-61.2903006
CORONEL DORREGO,INDUMENTARIA,MULTIMODAS,ECHEVERRÍA Y 13 DE DICIEMBRE,2921,409244,15,BUENOS AIRES,,,,-38.7240415,-61.2825623
CORONEL DORREGO,INDUMENTARIA,PASO A PASO,SAN MARTÍN 644,2921,409500,15,BUENOS AIRES,,,,-38.7167016,-61.2900053
CORONEL DORREGO,INDUMENTARIA,UNIKA,SAN MARTÍN 763,2921,405957,15,BUENOS AIRES,,,,-38.7177699,-61.2889348
CORONEL DORREGO,LIBRERÍA,EL CENTRO DEL FOTOCOPIADO,SAN MARTÍN 880,2921,405979,15,BUENOS AIRES,,,,-38.7184222,-61.2875771
CORONEL DORREGO,LIBRERÍA,LIBRERÍA GARABATOS,AV. FUERTES 523,2921,406599,15,BUENOS AIRES,,,,-38.7179967,-61.2869868
CORONEL DORREGO,ZAPATERÍA,CALZADOS CARIOCA,SAN MARTÍN Y MACIEL,2921,453564,10,BUENOS AIRES,,,,-38.7194612,-61.2903505
CORONEL PRINGLES,BAZAR Y DECORACIÓN,BAZAR AMÉRICA,RIVADAVIA 955,2922,422085,10,BUENOS AIRES,,,,-37.9852584,-61.3497918
CORONEL PRINGLES,DEPORTE,TROTES DEPORTES,MITRE 1101,,483213,15,BUENOS AIRES,,,,-37.9852584,-61.3497918
CORONEL PRINGLES,INDUMENTARIA,BRETON,RIVADAVIA 918,2922,463851,15,BUENOS AIRES,,,,-37.9852584,-61.3497918
CORONEL PRINGLES,INDUMENTARIA,BUEN VESTIR,DORREGO 804,2922,462268,15,BUENOS AIRES,,,,-37.9860759,-61.3559291
CORONEL PRINGLES,INDUMENTARIA,CRONOS,MITRE 1002,2922,462571,15,BUENOS AIRES,,,,-37.9852584,-61.3497918
CORONEL PRINGLES,INDUMENTARIA,DOS MORENAS,SUÁREZ 941,2922,462961,15,BUENOS AIRES,,,,-37.9852584,-61.3497918
CORONEL PRINGLES,INDUMENTARIA,GASOLEROS UNISEX,STEGMANN 753,2922,462390,15,BUENOS AIRES,,,,-37.9851971,-61.3552785
CORONEL PRINGLES,INDUMENTARIA,INQUIETA,CALLE 18 Nº 1080,2922,466951,15,BUENOS AIRES,,,,-37.9852584,-61.3497918
CORONEL PRINGLES,INDUMENTARIA,LA ALDEA,SAN MARTÍN 760,2922,462728,15,BUENOS AIRES,,,,-34.5757521,-58.5370965
CORONEL PRINGLES,INDUMENTARIA,LA FLORIDA,RIVADAVIA 1090,2923,427182,15,BUENOS AIRES,,,,-37.9852584,-61.3497918
CORONEL PRINGLES,INDUMENTARIA,LAS LEÑAS,MITRE 950,2923,699926,15,BUENOS AIRES,,,,-37.9852584,-61.3497918
CORONEL PRINGLES,INDUMENTARIA,LAS LEÑAS - PRINGLES,MITRE 950,,,15,BUENOS AIRES,,,,-37.9852584,-61.3497918
CORONEL PRINGLES,INDUMENTARIA,MICKEY,RIVADAVIA 941,2922,463759,15,BUENOS AIRES,,,,-37.9852584,-61.3497918
CORONEL PRINGLES,INDUMENTARIA,STAR GUAPA,RIVADAVIA 1176,2922,464150,15,BUENOS AIRES,,,,-37.9852584,-61.3497918
CORONEL PRINGLES,INDUMENTARIA,ZAGGATO,RIVADAVIA 987,2922,464250,15,BUENOS AIRES,,,,-37.9852584,-61.3497918
CORONEL PRINGLES,ÓPTICA,ÓPTICA SAINT GERMAIN,STEGMANN 645,2922,464545,15,BUENOS AIRES,,,,-37.9859391,-61.35431
CORONEL PRINGLES,ZAPATERÍA,MAURO CALZADOS,STEGMANN 763,2922,466077,10,BUENOS AIRES,,,,-37.9851166,-61.3554088
CORONEL SUÁREZ,ARTÍCULOS DE CAMPING Y PESCA,EL DORADO,AV. SAN MARTÍN 139,,,15,BUENOS AIRES,,,,-37.4622031,-61.9317098
CORONEL SUÁREZ,ARTÍCULOS DE CAMPING Y PESCA,RA PESCA,MITRE 2068,2926,431290,15,BUENOS AIRES,,,,-37.4597651,-61.9454041
CORONEL SUÁREZ,BAZAR Y DECORACIÓN,TIENDA MOLONA,MITRE 1377,2926,421204,10,BUENOS AIRES,,,,-37.4586677,-61.9357559
CORONEL SUÁREZ,BLANCO,TODO BLANQUERIA DE MIGUEL WEIMANN,BRANDSEN 142,,,10,BUENOS AIRES,,,,-37.4587898,-61.9346241
CORONEL SUÁREZ,COMPUTACIÓN,PUERTO DIGITAL,MITRE 1058,2926,431906,10,BUENOS AIRES,,,,-37.4577373,-61.9318802
CORONEL SUÁREZ,CONFITERÍA,CERVANTES - CAFÉ MD GLAM,MITRE 1168,2926,542804,10,BUENOS AIRES,,,,-37.4579512,-61.933288
CORONEL SUÁREZ,COTILLÓN,LA CASA DE KIKI,ALEM 440,,,10,BUENOS AIRES,,,,-37.4547777,-61.9282864
CORONEL SUÁREZ,DEPORTE,FREDDY OUTDOORS,ALSINA 98 ESQUINA BELGRANO,,,15,BUENOS AIRES,,,,-37.4589827,-61.9320054
CORONEL SUÁREZ,DEPORTE,JM SPORT,LAMADRID 1716,,,15,BUENOS AIRES,,,,-37.4581174,-61.9404855
CORONEL SUÁREZ,DEPORTE,TODO DEPORTES MJ,BRANDSEN 238,,,15,BUENOS AIRES,,,,-37.4579257,-61.9348527
CORONEL SUÁREZ,DEPORTE,TROTES DEPORTES,SARMIENTO Y MITRE,2926,422055,15,BUENOS AIRES,,,,-37.4583545,-61.9349444
CORONEL SUÁREZ,FOTOGRAFÍA Y FILMACIÓN,ARTE MODERNO,MITRE 1134,,,10,BUENOS AIRES,,,,-37.4579235,-61.932926
CORONEL SUÁREZ,INDUMENTARIA,ALEGRA,LAMADRID 1353,,,15,BUENOS AIRES,,,,-37.457596,-61.9358131
CORONEL SUÁREZ,INDUMENTARIA,ALMA INQUIETA,BRANDSEN 280,,,15,BUENOS AIRES,,,,-37.4575521,-61.9348747
CORONEL SUÁREZ,INDUMENTARIA,CAOBA BÁSICOS,BRANDSEN 201,,,15,BUENOS AIRES,,,,-37.4583545,-61.9349444
CORONEL SUÁREZ,INDUMENTARIA,CASA WAGNER,MITRE 1320,,,15,BUENOS AIRES,,,,-37.4582724,-61.9352678
CORONEL SUÁREZ,INDUMENTARIA,CHAPLIN,BRANDSEN Y LAS HERAS,,,15,BUENOS AIRES,,,,-35.1679518,-58.2373784
CORONEL SUÁREZ,INDUMENTARIA,CUERPO Y ALMA,BRANDSEN 220,,,15,BUENOS AIRES,,,,-37.4580733,-61.9348188
CORONEL SUÁREZ,INDUMENTARIA,DE TODO PARA TODOS EL MIRADOR,BELGRANO Y SARMIENTO,2926,423244,15,BUENOS AIRES,,,,-34.656513,-58.6213534
CORONEL SUÁREZ,INDUMENTARIA,EME,MITRE 1324,,,15,BUENOS AIRES,,,,-37.4581944,-61.9353211
CORONEL SUÁREZ,INDUMENTARIA,FRIDA,BRANDSEN 261,,,15,BUENOS AIRES,,,,-37.4577886,-61.9351987
CORONEL SUÁREZ,INDUMENTARIA,FULANO,AV. ALSINA 223,2926,431107,15,BUENOS AIRES,,,,-37.4578278,-61.932438
CORONEL SUÁREZ,INDUMENTARIA,GALAS,SAN MARTÍN 360,,,15,BUENOS AIRES,,,,-37.4554296,-61.9269869
CORONEL SUÁREZ,INDUMENTARIA,INVICTA,VILLEGAS 30,,,15,BUENOS AIRES,,,,-37.4602173,-61.9355387
CORONEL SUÁREZ,INDUMENTARIA,JESU-AN,MANUEL PALENZONA 805,,,15,BUENOS AIRES,,,,-37.4586139,-61.9328019
CORONEL SUÁREZ,INDUMENTARIA,JUAN DE LOS PALOTES,SARMIENTO 185,,,15,BUENOS AIRES,,,,-37.4584042,-61.9338411
CORONEL SUÁREZ,INDUMENTARIA,KEVINGSTON,AV. ALSINA 240,2926,422124,15,BUENOS AIRES,,,,-37.4575382,-61.9324984
CORONEL SUÁREZ,INDUMENTARIA,KIKA,BRANDSEN 299,,,15,BUENOS AIRES,,,,-37.4573977,-61.9353332
CORONEL SUÁREZ,INDUMENTARIA,LA CARRETA,MITRE 1124,,,15,BUENOS AIRES,,,,-37.4578726,-61.9328307
CORONEL SUÁREZ,INDUMENTARIA,LA ROCCA,LAMADRID 1220,,,15,BUENOS AIRES,,,,-37.4569504,-61.9341605
CORONEL SUÁREZ,INDUMENTARIA,LO DE MARÍA MODAS,VILLEGAS 128,,,15,BUENOS AIRES,,,,-37.4594078,-61.9357119
CORONEL SUÁREZ,INDUMENTARIA,LOLA NARSH,BELGRANO 1413,,,15,BUENOS AIRES,,,,-37.4596662,-61.9361793
CORONEL SUÁREZ,INDUMENTARIA,MEMPHIS ROPA MASCULINA,MITRE 1416,,,15,BUENOS AIRES,,,,-37.4584064,-61.9364976
CORONEL SUÁREZ,INDUMENTARIA,MENORCA - CORONEL SUÁREZ,MITRE 1328,,,15,BUENOS AIRES,,,,-37.4581942,-61.9354385
CORONEL SUÁREZ,INDUMENTARIA,MONTAGNE CORONEL SUÁREZ,BELGRANO 1380,,,15,BUENOS AIRES,,,,-37.4593714,-61.9358255
CORONEL SUÁREZ,INDUMENTARIA,MOXIE,VILLEGAS 356,,,15,BUENOS AIRES,,,,-37.4567664,-61.9367735
CORONEL SUÁREZ,INDUMENTARIA,NC JEANS,AV.ELLANEDA 984,2926,430627,15,BUENOS AIRES,,,,-37.4545654,-61.9317287
CORONEL SUÁREZ,INDUMENTARIA,PAMPERO II,BELGRANO 1264,2926,412712,15,BUENOS AIRES,,,,-37.4591007,-61.9342686
CORONEL SUÁREZ,INDUMENTARIA,PEOR ES NADA TE VISTE,MITRE 1170,2923,581238,15,BUENOS AIRES,,,,-37.4580136,-61.9332913
CORONEL SUÁREZ,INDUMENTARIA,PIPA HAUS,MITRE 1381,,,15,BUENOS AIRES,,,,-37.4586673,-61.935839
CORONEL SUÁREZ,INDUMENTARIA,PORC E PIC,MITRE 1124,,,15,BUENOS AIRES,,,,-37.4578726,-61.9328307
CORONEL SUÁREZ,INDUMENTARIA,REINAS,SARMIENTO 245,,,15,BUENOS AIRES,,,,-37.4577071,-61.933943
CORONEL SUÁREZ,INDUMENTARIA,RHONA,MITRE 1343,,,15,BUENOS AIRES,,,,-37.4586174,-61.935504
CORONEL SUÁREZ,INDUMENTARIA,ROPERÍA LAURA,AV. SAN MARTÍN 1115,2926,430940,15,BUENOS AIRES,,,,-37.4719061,-61.9288162
CORONEL SUÁREZ,INDUMENTARIA,SALDERÍA EL MIRADOR,SARMIENTO 143,2926,430222,15,BUENOS AIRES,,,,-37.4587805,-61.9337597
CORONEL SUÁREZ,INDUMENTARIA,SHE,BELGRANO 773,,,15,BUENOS AIRES,,,,-37.4585957,-61.9284447
CORONEL SUÁREZ,INDUMENTARIA,FULANA´S,AVD. SIXTO RODRÍGUEZ 386,,,15,BUENOS AIRES,,,,-37.4515219,-61.9256624
CORONEL SUÁREZ,JOYERÍA Y RELOJERÍA,DIANA JAIME,MITRE 1227,,,15,BUENOS AIRES,,,,-37.4583602,-61.9340495
CORONEL SUÁREZ,JOYERÍA Y RELOJERÍA,EL ESTILO JOYERÍA,LAMADRID 1593,,,15,BUENOS AIRES,,,,-37.4579389,-61.9387514
CORONEL SUÁREZ,JOYERÍA Y RELOJERÍA,JOYERÍA ZABALLA,AV. ALSINA 235,,,15,BUENOS AIRES,,,,-37.4579053,-61.9335036
CORONEL SUÁREZ,LIBRERÍA,COLORES,AV. REPÚBLICA DEL PERÚ 546,,,15,BUENOS AIRES,,,,-37.4586139,-61.9328019
CORONEL SUÁREZ,LIBRERÍA,ICONO,MITRE 1691,,,15,BUENOS AIRES,,,,-37.4591373,-61.9395975
CORONEL SUÁREZ,LIBRERÍA,LA ESQUINA,BELGRANO 1893,,,15,BUENOS AIRES,,,,-37.4605932,-61.9421282
CORONEL SUÁREZ,LIBRERÍA,LIBRERÍA LOSNO,SARMIENTO Y LAMADRID,,,15,BUENOS AIRES,,,,-37.4573215,-61.9351684
CORONEL SUÁREZ,LIBRERÍA,MAFALDA,AV. URIBURU 415,,,15,BUENOS AIRES,,,,-37.4545087,-61.923986
CORONEL SUÁREZ,LIBRERÍA,MOTIVOS,AV. CONTURBI 691,,,15,BUENOS AIRES,,,,-37.4545886,-61.9434048
CORONEL SUÁREZ,MUEBLES,LOS NARANJOS,VILLEGAS 191,2926,432442,10,BUENOS AIRES,,,,-37.4586401,-61.9362834
CORONEL SUÁREZ,MUEBLES,MUEBLERÍA GALEAZZI,BRANDSEN 299,2926,425204,10,BUENOS AIRES,,,,-37.4573977,-61.9353332
CORONEL SUÁREZ,ÓPTICA,CENTRO ÓPTICO,SARMIENTO 237,,,15,BUENOS AIRES,,,,-37.4578275,-61.9339158
CORONEL SUÁREZ,ÓPTICA,CENTRO ÓPTICO I,SARMIENTO 237,,,15,BUENOS AIRES,,,,-37.4578275,-61.9339158
CORONEL SUÁREZ,ÓPTICA,ÓPTICA BELGRANO,VILLEGAS 83,,,15,BUENOS AIRES,,,,-37.4599538,-61.9360865
CORONEL SUÁREZ,ÓPTICA,ÓPTICA INTEGRAL,BRANDSEN 245,2926,422242,15,BUENOS AIRES,,,,-37.4579073,-61.9352825
CORONEL SUÁREZ,ÓPTICA,ÓPTICA SCHWAB,RIVAS 309,,,15,BUENOS AIRES,,,,-37.4577966,-61.9391841
CORONEL SUÁREZ,ÓPTICA,OS VISIÓN,RIVAS 309,,,15,BUENOS AIRES,,,,-37.4577966,-61.9391841
CORONEL SUÁREZ,PINTURERÍA,FERNÁNDEZ COLOR,JUNÍN 20,2923,646655,10,BUENOS AIRES,,,,-37.4595205,-61.9288062
CORONEL SUÁREZ,PINTURERÍA,PINTURERÍA CASABLANCA,AV. SAN MARTÍN 350,,,10,BUENOS AIRES,,,,-37.4685125,-61.9300176
CORONEL SUÁREZ,REPUESTOS DE MOTOS,MOTOPARTES SUÁREZ,AV. CASEY 414,,,10,BUENOS AIRES,,,,-37.4589541,-61.9240603
CORONEL SUÁREZ,RESTAURANT,ARTEMIO GRAMAJO,BRANDSEN 82,,,10,BUENOS AIRES,,,,-37.4595236,-61.9344869
CORONEL SUÁREZ,ZAPATERÍA,STALA,VILLEGAS 219,,,10,BUENOS AIRES,,,,-37.4583102,-61.9365009
CORONEL SUÁREZ,ZAPATERÍA,CALZADOS RICARDO,VILLEGAS 111,2926,425168,10,BUENOS AIRES,,,,-37.4594101,-61.9361586
CORONEL SUÁREZ,ZAPATERÍA,LE UTOPIK,LAMADRID 1324,,,10,BUENOS AIRES,,,,-37.4572295,-61.9355844
CORONEL SUÁREZ,ZAPATERÍA,MD GLAM,MITRE 1168,,,10,BUENOS AIRES,,,,-37.4579512,-61.933288
CORONEL SUÁREZ,ZAPATERÍA,OUTLET LE UTOPIK,AV. SAN MARTÍN 374,,,10,BUENOS AIRES,,,,-37.4553132,-61.9269214
CUTRAL CO,INDUMENTARIA,GIRASOL INDUMENTARIA,AV. OLASCOAGA 319,299,4861836,15,Neuquén,,,,-38.932927,-69.2240322
CUTRAL CO,INDUMENTARIA,GIRASOL INDUMENTARIA,AV. ROCA 681,299,4863277,15,Neuquén,,,,-38.9370779,-69.2291136
CUTRAL CO,INDUMENTARIA,OSIEL,AV. ROCA Y SARMIENTO,299,4961127,15,Neuquén,,,,-38.9361285,-69.2290116
CUTRAL CO,INDUMENTARIA,SO PIRLO,AV. ROCA 354,299,154157647,15,Neuquén,,,,-38.933315,-69.229908
CUTRAL CO,INDUMENTARIA,TIZ ROMA INDUMENTARIA,SÁENZ PEÑA 674,299,4865159,15,Neuquén,,,,-38.9377552,-69.2294588
CUTRAL CO,MUEBLES,DULCE HOGAR,SÁENZ PEÑA 517,299,156133639,10,Neuquén,,,,-38.9377552,-69.2294588
CUTRAL CO,REGALERÍA,MARCELO REGALOS,AV. ROCA 382,299,154843813,10,Neuquén,,,,-38.9336136,-69.2298246
CUTRAL CO,ÓPTICA,ÓPTICA FOCCUS,SARMIENTO 71,299,155658333,15,Neuquén,,,,-38.9361953,-69.2281764
GENERAL ACHA,INDUMENTARIA,LOF QUIÑE,DON BOSCO Y ESPAÑA,2952,412490,15,La Pampa,,,,-37.3687938,-64.5998672
GENERAL ACHA,JOYERÍA Y RELOJERÍA,AQUAMARINE,AV.ELLANEDA 768,2952,432352,15,La Pampa,,,,-37.377838,-64.6026655
GENERAL ACHA,LIBRERÍA,TECNO ACHA,GRAL. CAMPOS 880,2954,662735,15,La Pampa,,,,-37.378255,-64.6062027
GENERAL ACHA,ÓPTICA,ÓPTICA Y CONTACTOLOGÍA DEL SOL,DON BOSCO 552,2952,432180,15,La Pampa,,,,-37.3788568,-64.6003074
GENERAL FERNÁNDEZ ORO,INDUMENTARIA,GUAPA´S,ROCA 760,299,4996231,15,RÍO NEGRO,,,,-38.9538676,-67.9250145
GENERAL FERNÁNDEZ ORO,INDUMENTARIA,MICHO,ROCA 1231,299,4996299,15,RÍO NEGRO,,,,-38.9535468,-67.9300768
GENERAL FERNÁNDEZ ORO,LIBRERÍA,GARABATOS,AV. ROCA 19,298,154509817,15,RÍO NEGRO,,,,-38.9531591,-67.9175481
GENERAL FERNÁNDEZ ORO,LIBRERÍA,LIBRERÍA GARABATOS,SARMIENTO 719,298,154509818,15,RÍO NEGRO,,,,-38.9541021,-67.9292299
GENERAL DANIEL CERRI,ÓPTICA,ÓPTICA MAS,CHICLANA 198,291,4846069,15,BUENOS AIRES,,,,-38.7200858,-62.3930751
GENERAL LA MADRID,INDUMENTARIA,CASA BERRA,MITRE 663,2286,420801,15,BUENOS AIRES,,,,-37.2496772,-61.2621919
GENERAL LA MADRID,INDUMENTARIA,CLOSET,BELGRANO 553,2923,652878,15,BUENOS AIRES,,,,-37.2496772,-61.2621919
GENERAL LA MADRID,INDUMENTARIA,FRUTILLITA,MITRE 658,11,58040357,15,BUENOS AIRES,,,,-37.2496772,-61.2621919
GENERAL LA MADRID,INDUMENTARIA,LIVING ROOM,RODRÍGUEZ PEÑA 660,2284,224331,15,BUENOS AIRES,,,,-37.2496772,-61.2621919
GENERAL LA MADRID,INDUMENTARIA,MISTIKA,BELGRANO 988,2284,217292,15,BUENOS AIRES,,,,-37.2496772,-61.2621919
GENERAL LA MADRID,INDUMENTARIA,MITALI,AV. ROQUE SÁENZ PEÑA 725,2284,468031,15,BUENOS AIRES,,,,-37.2511756,-61.2565979
GENERAL LA MADRID,INDUMENTARIA,PENTRA/CRACK,MITRE 479,221,5709422,15,BUENOS AIRES,,,,-37.2496772,-61.2621919
GENERAL LA MADRID,INDUMENTARIA,QUIJOTES HOMBRES,SAN MARTÍN 441,2284,547711,15,BUENOS AIRES,,,,-37.2496772,-61.2621919
GENERAL LA MADRID,INDUMENTARIA,ROCINANTES CALZADOS,MITRE 618,2284,567597,15,BUENOS AIRES,,,,-37.2496772,-61.2621919
GENERAL LA MADRID,INDUMENTARIA,SOUL SH,SAN MARTÍN 638,2284,332751,15,BUENOS AIRES,,,,-37.2496772,-61.2621919
GENERAL LA MADRID,INDUMENTARIA,TIENDA JAMIL,MITRE 657,2284,515286,15,BUENOS AIRES,,,,-37.2496772,-61.2621919
GENERAL LA MADRID,JOYERÍA Y RELOJERÍA,CASA RIEGA,MITRE 662,2286,420160,15,BUENOS AIRES,,,,-37.2496772,-61.2621919
GENERAL LA MADRID,ÓPTICA,LABORATORIO ÓPTICO BIURRARENA,SAN MARTÍN 846,2286,420549,15,BUENOS AIRES,,,,-37.2496772,-61.2621919
GENERAL LA MADRID,ÓPTICA,ÓPTICA LAMADRID,25 DE MAYO 511,2286,222229,15,BUENOS AIRES,,,,-37.2496123,-61.2609656
GENERAL PICO,INDUMENTARIA,AL PASO INDUMENTARIA,40 Nº 816,2302,432519,15,La Pampa,,,,-35.6593239,-63.7577887
GENERAL PICO,INDUMENTARIA,D´ TUTTO,15 Nº 998,2302,421818,15,La Pampa,,,,-35.6593239,-63.7577887
GENERAL PICO,INDUMENTARIA,ETERNUM,18 Nº 529,2302,322529,15,La Pampa,,,,-35.6622665,-63.7212099
GENERAL PICO,INDUMENTARIA,HOPE BIENVESTIDOS,20 Nº 577,2302,326058,15,La Pampa,,,,-35.6593239,-63.7577887
GENERAL PICO,INDUMENTARIA,ONE WAY,17 Nº 950 LOCAL 45,,,15,La Pampa,,,,-35.6593239,-63.7577887
GENERAL PICO,INDUMENTARIA,POLO CLUB,18 Nº581,2302,327676,15,La Pampa,,,,-35.6593239,-63.7577887
GENERAL PICO,INDUMENTARIA,ROQUE NUBLO,17 Nº 938,2302,436272,15,La Pampa,,,,-35.6593239,-63.7577887
GENERAL PICO,LIBRERÍA,INDEPENDENCIA LIBROS,17 Nº 960,2302,329224,15,La Pampa,,,,-35.6593239,-63.7577887
GENERAL PICO,ÓPTICA,ÓPTICA GAFFAS,13 Nº 830,2302,430667,15,La Pampa,,,,-35.6593239,-63.7577887
GENERAL PICO,ÓPTICA,ÓPTICA SAN JUAN,2 Nº 188,2302,336868,15,La Pampa,,,,-35.6593239,-63.7577887
GENERAL PICO,ÓPTICA,ÓPTICA Y ORTOPEDIA EL TIC TAC S.R.L.,20 Nº 727,2302,434941,15,La Pampa,,,,-35.6593239,-63.7577887
GENERAL ROCA,DEPORTE,TRAS LA SENDA,MITRE 1341,298,4433503,15,RÍO NEGRO,,,,-39.0262293,-67.5829956
GENERAL ROCA,INDUMENTARIA,ALIADOS,MITRE 1182,298,4422439,15,RÍO NEGRO,,,,-39.0268317,-67.5807566
GENERAL ROCA,INDUMENTARIA,CAMISERÍAS AVENIDA,TUCUMÁN 776,298,4423771,15,RÍO NEGRO,,,,-39.0286416,-67.5753746
GENERAL ROCA,INDUMENTARIA,L 'UNIKA,SAN JUAN 2314,298,4427708,15,RÍO NEGRO,,,,-39.0180672,-67.5858711
GENERAL ROCA,INDUMENTARIA,L ´UNIKA II,TUCUMÁN 1157,298,4431466,15,RÍO NEGRO,,,,-39.0276239,-67.580631
GENERAL ROCA,INDUMENTARIA,LUCHETTO,TUCUMÁN 988,298,4421956,15,RÍO NEGRO,,,,-39.0282691,-67.5782808
GENERAL ROCA,INDUMENTARIA,UNELEN,TUCUMÁN 959,298,154968906,15,RÍO NEGRO,,,,-39.0282341,-67.5792587
GENERAL ROCA,JOYERÍA Y RELOJERÍA,DUAL TIME,TUCUMÁN 1179,298,154933356,15,RÍO NEGRO,,,,-39.0276721,-67.5808867
GENERAL ROCA,JOYERÍA Y RELOJERÍA,TALLER DE RELOJERÍA UNIVERSAL,TUCUMÁN 1285,298,154619678,15,RÍO NEGRO,,,,-39.0274759,-67.5822637
GENERAL ROCA,LIBRERÍA,DE LA FE,TUCUMÁN 1145,298,154594177,15,RÍO NEGRO,,,,-39.0277038,-67.5804577
GENERAL ROCA,LIBRERÍA,LIBRERÍAS NINO,TUCUMÁN 475,298,4424374,15,RÍO NEGRO,,,,-39.0288703,-67.5712246
GENERAL ROCA,LIBRERÍA,ROCA LIBROS,AVENIDA ROCA 1545,298,4436587,15,RÍO NEGRO,,,,-39.0281304,-67.5756527
GENERAL ROCA,ÓPTICA,ÓPTICA CONSTANZO,TUCUMÁN 924,298,4426060,15,RÍO NEGRO,,,,-39.0283991,-67.5775823
GENERAL ROCA,ÓPTICA,ÓPTICA DEL SUR,AVENIDA ROCA 1390,298,154899819,15,RÍO NEGRO,,,,-39.030038,-67.5763414
GENERAL ROCA,ÓPTICA,ÓPTICA ORIEN´S,BELGRANO 1596,298,4420009,15,RÍO NEGRO,,,,-39.0280314,-67.571622
GENERAL ROCA,ÓPTICA,ÓPTICA STYLENT,TUCUMÁN 157,298,4434674,15,RÍO NEGRO,,,,-39.0293106,-67.566926
GENERAL ROCA,ÓPTICA,PATAGONIA BUENA VISTA I,TUCUMÁN 168,298,4442720,15,RÍO NEGRO,,,,-39.0295687,-67.5670955
GENERAL VILLEGAS,INDUMENTARIA,ACQUA,BELGRANO 364,3388,424417,15,BUENOS AIRES,,,,-35.0321683,-63.0194546
GENERAL VILLEGAS,INDUMENTARIA,ALONDRA,SAAVEDRA 1281,3388,433063,15,BUENOS AIRES,,,,-35.0290693,-63.0045379
GENERAL VILLEGAS,INDUMENTARIA,BERENGUER DEPORTES,RIVADAVIA 448,3388,420396,15,BUENOS AIRES,,,,-35.0311778,-63.0199964
GENERAL VILLEGAS,INDUMENTARIA,BUENOS DETALLES,MORENO 685,3388,504723,15,BUENOS AIRES,,,,-35.0331316,-63.0162217
GENERAL VILLEGAS,INDUMENTARIA,CANDILEJAS DEPORTES,ARENALES 334,3388,671725,15,BUENOS AIRES,,,,-35.0320129,-63.0176697
GENERAL VILLEGAS,INDUMENTARIA,EL BARÓN,BELGRANO 358,3388,439792,15,BUENOS AIRES,,,,-35.0320989,-63.0194376
GENERAL VILLEGAS,INDUMENTARIA,EL GALPÓN,LARREA 673,3388,424057,15,BUENOS AIRES,,,,-35.0389688,-63.0052457
GENERAL VILLEGAS,INDUMENTARIA,LA HORA,MORENO 580,3388,423879,15,BUENOS AIRES,,,,-35.0332249,-63.0180921
GENERAL VILLEGAS,INDUMENTARIA,LELA BOUTIQUE,PADRE A. WESNER 786,3388,672737,15,BUENOS AIRES,,,,-35.0405201,-63.0051258
GENERAL VILLEGAS,INDUMENTARIA,MARYLAN,MORENO 597,3388,414915,15,BUENOS AIRES,,,,-35.0328604,-63.0177152
GENERAL VILLEGAS,INDUMENTARIA,NAMASTE,SARMIENTO 59,3388,422869,15,BUENOS AIRES,,,,-35.0292313,-63.0092201
GENERAL VILLEGAS,INDUMENTARIA,NO END,BELGRANO 346,3388,424285,15,BUENOS AIRES,,,,-35.0318522,-63.0192037
GENERAL VILLEGAS,INDUMENTARIA,SAMARA,CASTELLI 1580,3388,467428,15,BUENOS AIRES,,,,-35.0325478,-63.0011791
GENERAL VILLEGAS,INDUMENTARIA,VERDE MANZANA,MORENO 450,3388,422334,15,BUENOS AIRES,,,,-35.0327147,-63.0200344
GENERAL VILLEGAS,INDUMENTARIA,ZONA PAMPA,RIVADAVIA 539,3388,420933,15,BUENOS AIRES,,,,-35.0310837,-63.018178
GENERAL VILLEGAS,JOYERÍA Y RELOJERÍA,PONTE VECCHIO JOYAS,RIVADAVIA 461,3388,415007,15,BUENOS AIRES,,,,-35.030875,-63.0196098
GENERAL VILLEGAS,LIBRERÍA,CASA MIGUELITO,BELGRANO 353,3388,421254,15,BUENOS AIRES,,,,-35.032,-63.019128
GENERAL VILLEGAS,ÓPTICA,ÓPTICA BOGLIOLO,ARENALES 374,3388,421111,15,BUENOS AIRES,,,,-35.032587,-63.0177356
GENERAL VILLEGAS,ÓPTICA,ÓPTICA CRISTAL,MORENO 507,3388,422219,15,BUENOS AIRES,,,,-35.0325002,-63.0190234
GUATRACHÉ,INDUMENTARIA,ANDAN LOCAS,AV. ZEBALLOS 135 LOCAL 2,2923,408812,15,La Pampa,,,,-37.6671593,-63.5366822
GUATRACHÉ,INDUMENTARIA,ASTILLA,AV. ZEBALLOS 398,2923,657494,15,La Pampa,,,,-37.6670076,-63.5386131
GUATRACHÉ,INDUMENTARIA,CAMPESINA 2,AV. ZEBALLOS Y AV. DE LOS INMIGRANTES,2924,492121,15,La Pampa,,,,-37.6668832,-63.5378788
GUATRACHÉ,INDUMENTARIA,KEOPS,AV. ZEBALLOS 94,2924,492141,15,La Pampa,,,,-37.6669985,-63.536267
GUATRACHÉ,INDUMENTARIA,ROUGE,AV. ZEBALLOS 241,2924,413146,15,La Pampa,,,,-37.6670068,-63.5385472
GUATRACHÉ,INDUMENTARIA,STYLO MODAS,AV. ZEBALLOS 290,2924,492675,15,La Pampa,,,,-37.667007,-63.5385678
GUATRACHÉ,LIBRERÍA,ARLEQUÍN,ZEBALLOS Y COLÓN,2924,492046,15,La Pampa,,,,-37.3764643,-63.7707604
GUATRACHÉ,LIBRERÍA,LIBRERÍA AMISTAD,AV. ZEBALLOS 208,2924,492177,15,La Pampa,,,,-37.6670033,-63.5382384
GUATRACHÉ,ÓPTICA,ÓPTICA IRIS,ZEBALLOS 281,2923,543221,15,La Pampa,,,,-37.667007,-63.538564
HENDERSON,DEPORTE,ASENSIO DEPORTES,FLORIDA 439,2314,452128,15,BUENOS AIRES,,,,-36.3019325,-61.7162014
HENDERSON,INDUMENTARIA,BIST`T,M. MORENO 323,2314,451495,15,BUENOS AIRES,,,,-36.2982199,-61.7162455
HENDERSON,INDUMENTARIA,EL VESTIDOR,9 DE JULIO 496,2314,452198,15,BUENOS AIRES,,,,-36.3004125,-61.715829
HENDERSON,INDUMENTARIA,TIENDA EL GAUCHO,FLORIDA 454,2314,452018,15,BUENOS AIRES,,,,-36.3020172,-61.7168735
HENDERSON,INDUMENTARIA,VALE,DIAG. H. YRIGOYEN Y M. MORENO,2396,15510885,15,BUENOS AIRES,,,,-36.3014185,-61.7198899
HENDERSON,JOYERÍA Y RELOJERÍA,LA PRECISIÓN,FLORIDA 491,2314,15628001,15,BUENOS AIRES,,,,-36.3015744,-61.7171465
HENDERSON,JOYERÍA Y RELOJERÍA,SIGLO XX,FLORIDA 429,2314,452224,15,BUENOS AIRES,,,,-36.3020725,-61.7161621
HENDERSON,LIBRERÍA,EL GLOBO,M. MOREN0 869,2314,15403023,15,BUENOS AIRES,,,,-36.3039864,-61.7235051
HENDERSON,ÓPTICA,ÓPTICA ELDA,FLORIDA 489,2314,15628001,15,BUENOS AIRES,,,,-36.3013796,-61.7168586
HENDERSON,ÓPTICA,ÓPTICA HENDERSON,DIAG. H.YRIGOYEN 186,2314,451007,15,BUENOS AIRES,,,,-36.301506,-61.7192337
INGENIERO WHITE,INDUMENTARIA,ADRI BOUTIQUE,AV. SAN MARTÍN 3386,291,5753501,15,BUENOS AIRES,,,,-38.784481,-62.2677612
HUANGUELÉN,DEPORTE,MORGADO,FUNDADORES 747,2933,432223,15,BUENOS AIRES,,,,-37.0619345,-61.9404093
HUANGUELÉN,INDUMENTARIA,CLEOPATRA,CALLE 9 1463,2926,414832,15,BUENOS AIRES,,,,-37.0619345,-61.9404093
HUANGUELÉN,INDUMENTARIA,NODALI,CALLE 11 782,2933,432572,15,BUENOS AIRES,,,,-37.0619345,-61.9404093
HUANGUELÉN,INDUMENTARIA,FOR MEN,CALLE 10 824,2923,415936,15,BUENOS AIRES,,,,-37.0619345,-61.9404093
JUNÍN DE LOS ANDES,FARMACIA,FARMACIA LANÍN,MARIANO MORENO 504,2972,491792,10,Neuquén,,,,-39.949128,-71.07676
JUNÍN DE LOS ANDES,INDUMENTARIA,FRANCHESCA,LAMADRID 210,294,154554011,15,Neuquén,,,,-39.9498039,-71.0725751
JUNÍN DE LOS ANDES,INDUMENTARIA,MAURO SERGIO II,PADRE MILANESIO 449,294,154227203,15,Neuquén,,,,-39.9499338,-71.0700666
JUNÍN DE LOS ANDES,INDUMENTARIA,TROCADERO DEPORTES,FÉLIX SAN MARTÍN 690,2972,491190,15,Neuquén,,,,-39.9516608,-71.0746208
JUNÍN DE LOS ANDES,INDUMENTARIA,VICKY,LAMADRID 68,2972,492640,15,Neuquén,,,,-39.9493846,-71.0745665
JUNÍN DE LOS ANDES,INDUMENTARIA,CALZADOS NAMÚN,O´HIGGINS,2944,967473,15,Neuquén,,,,-39.9499091,-71.0727398
JUNÍN DE LOS ANDES,ÓPTICA,ÓPTICA CELAVE,LAMADRID 441,2972,492804,15,Neuquén,,,,-39.9507848,-71.0696401
JUNÍN DE LOS ANDES,REPUESTOS DEL AUTOMOTOR,EL REPUESTERO JUNÍN,O´HIGGINS 455,2972,492488,10,Neuquén,,,,-39.9493721,-71.0728661
LAMARQUE,INDUMENTARIA,KM0,25 DE MAYO 587,2984,312198,15,RÍO NEGRO,,,,-39.4241198,-65.7064071
LAMARQUE,INDUMENTARIA,NESERGA S.A.S,INDEPENDENCIA 1060,299,4646758,15,RÍO NEGRO,,,,-39.4226014,-65.7054494
LAMARQUE,INDUMENTARIA,TIENDA ALEX,SAN MARTÍN 556,2984,929356,15,RÍO NEGRO,,,,-39.4238766,-65.7048614
LAMARQUE,INDUMENTARIA,TIENDA ALISON,SAN MARTÍN 571,2946,497022,15,RÍO NEGRO,,,,-39.4238394,-65.7048107
LAMARQUE,INDUMENTARIA,TIENDA EMILY,SAN MARTÍN 434,2984,583516,15,RÍO NEGRO,,,,-39.4229791,-65.7056954
LAMARQUE,ÓPTICA,ÓPTICA LAMARQUE,LIBERTAD 775,2984,278026,15,RÍO NEGRO,,,,-39.421635,-65.700689
LAPRIDA,INDUMENTARIA,BB SPORTS,MARIANO J. PEREYRA Y BTO. MARTÍNEZ,2285,420264,15,BUENOS AIRES,,,,-34.4948079,-58.5164546
LAPRIDA,INDUMENTARIA,COLORES,AVDA. PEREYRA 1210,11,56549358,15,BUENOS AIRES,,,,-37.5461172,-60.8000263
LAPRIDA,INDUMENTARIA,CRACK LAPRIDA,AVDA. SAN MARTÍN 1296,2284,228769,15,BUENOS AIRES,,,,-37.5513567,-60.8089515
LAPRIDA,INDUMENTARIA,EL GALEGO,AVDA. SAN MARTÍN 1201,2285,421215,15,BUENOS AIRES,,,,-37.5513567,-60.8089515
LAPRIDA,INDUMENTARIA,GOTHAM,AVDA. PEREYRA 1267,11,63633244,15,BUENOS AIRES,,,,-37.5464086,-60.8009236
LAPRIDA,INDUMENTARIA,LA BARRACA,AVDA. SAN MARTÍN 1790,2285,420560,15,BUENOS AIRES,,,,-37.5501691,-60.8070864
LAPRIDA,INDUMENTARIA,LA GLORIA,AVDA. PEREYRA 1500,2285,420451,15,BUENOS AIRES,,,,-37.5553897,-60.7881903
LAPRIDA,INDUMENTARIA,SOUL,AVDA. SAN MARTÍN 1288,2284,332751,15,BUENOS AIRES,,,,-37.5513567,-60.8089515
LAPRIDA,INDUMENTARIA,VINTAGE,AVDA. PEREYRA Y MITRE,2285,421966,15,BUENOS AIRES,,,,-37.5468201,-60.7989649
LAPRIDA,JOYERÍA Y RELOJERÍA,LAIOLO,AVDA. PEREYRA 1230,2285,421088,15,BUENOS AIRES,,,,-37.5462742,-60.8002278
LAPRIDA,LIBRERÍA,ARTE MAS,PELLEGRINI 1404,2284,637463,15,BUENOS AIRES,,,,-37.5459797,-60.7975046
LAPRIDA,ÓPTICA,LALLE,AVDA. PEREYRA 1309,2285,420898,15,BUENOS AIRES,,,,-37.5470772,-60.801399
LAS LAJAS,INDUMENTARIA,CASA CARAM,BELGRANO Y SAAVEDRA 384,2942,499051,15,Neuquén,,,,-38.523452,-70.364217
LAS LAJAS,INDUMENTARIA,IMAGEN MODA Y CALZADOS,AV. ROCA 568,2942,579783,15,Neuquén,,,,-38.52475,-70.3658342
LAS LAJAS,INDUMENTARIA,LIBRERÍA AFICHE,AV. ROCA 370,2942,537082,15,Neuquén,,,,-38.5241726,-70.3643712
LAS LAJAS,INDUMENTARIA,TENDENCIAS,25 DE MAYO 320,299,5111885,15,Neuquén,,,,-38.524788,-70.365023
LAS LAJAS,INDUMENTARIA,TIENDA ÁNGEL,25 DE MAYO,2942,499546,15,Neuquén,,,,-38.5235351,-70.3659985
LOBERÍA,LIBRERÍA,CASA METZADA,AV. SAN MARTÍN 259,2261,443069,15,BUENOS AIRES,,,,-38.1656388,-58.7807666
LOBERÍA,LIBRERÍA,REGALERÍA GLITTERS,BRANDSEN 88,2261,410191,15,BUENOS AIRES,,,,-38.159632,-58.7861128
LOBERÍA,INDUMENTARIA,ALEX,AV. MITRE 77,2262,475599,15,BUENOS AIRES,,,,-38.1626568,-58.7836902
LOBERÍA,INDUMENTARIA,CASA MACIAS,AV. CAMPOS 201,2261,442400,15,BUENOS AIRES,,,,-38.1617484,-58.7807992
LOBERÍA,INDUMENTARIA,EL DUENDE AZUL,AV. SARMIENTO 202,2261,443589,15,BUENOS AIRES,,,,-38.1653423,-58.7852647
LOBERÍA,INDUMENTARIA,LOS GALLEGUITOS,AV. CAMPOS 148,2261,440167,15,BUENOS AIRES,,,,-38.1618748,-58.7815845
LOBERÍA,INDUMENTARIA,MATICES,AV. MITRE 47,2262,633292,15,BUENOS AIRES,,,,-38.1628709,-58.7834078
LOBERÍA,INDUMENTARIA,RODRÍGUEZ DEPORTES,ESPAÑA 230,2261,443207,15,BUENOS AIRES,,,,-38.1634422,-58.7816955
LOBERÍA,INDUMENTARIA,TIENDA CEROLINI,AV. CAMPOS 100,2261,442127,15,BUENOS AIRES,,,,-38.162579,-58.7819985
LOBERÍA,MUEBLES,MUEBLES OMAR,AV. SAN MARTÍN 438,2261,440959,10,BUENOS AIRES,,,,-38.1665018,-58.7786596
LOBERÍA,ÓPTICA,LUZ CENTRO ÓPTICO,SAAVEDRA 19,2261,442356,15,BUENOS AIRES,,,,-38.1662923,-58.7786591
LOBERÍA,ÓPTICA,ÓPTICA RAGGIO,HIPÓLITO IRIGOYEN 26,2261,443845,15,BUENOS AIRES,,,,-38.1625191,-58.7824235
LONCOPUÉ,INDUMENTARIA,TIENDA BETA,AV. SAN MARTÍN S/N,2948,498518,15,Neuquén,,,,-38.0701189,-70.6154837
LUIS BELTRÁN,ÓPTICA,ÓPTICA GALILEO - LUIS BELTRÁN,3 DE FEBRERO 473,2946,480569,15,RÍO NEGRO,,,,-39.31052,-65.7652312
LUIS BELTRÁN,INDUMENTARIA,ARABESQUE SPORT,CALLE PADRE BRIZOLA Y DOMINGO FRENCH 0,2984,218976,15,RÍO NEGRO,,,,-39.3124917,-65.7586025
MADARIAGA,BLANCO,COLCHONES PINAMAR,RUTA 11 KM 397,,,10,BUENOS AIRES,,,,-37.1336441,-56.9101409
MADARIAGA,MUEBLES,AMOBLAMIENTOS ABECORAJOR,SARMIENTO 993,2267,555039,10,BUENOS AIRES,,,,-37.0018784,-57.1358949
MAR DEL PLATA,DEPORTE,ROSSI ROSSI,ALBERTI 1610 - PASEO ALDREY,223,4519155,15,BUENOS AIRES,,,,-38.012297,-57.543921
MAR DEL PLATA,DEPORTE,ROSSI ROSSI,AV. CONSTITUCIÓN 5092,223,4795177,15,BUENOS AIRES,,,,-37.9652058,-57.5547166
MAR DEL PLATA,DEPORTE,ROSSI ROSSI,AV. JUAN B. JUSTO 1301,223,4895445,15,BUENOS AIRES,,,,-38.0313605,-57.5543876
MAR DEL PLATA,DEPORTE,ROSSI ROSSI,GÜEMES 2951,223,4513077,15,BUENOS AIRES,,,,-38.0160274,-57.5422406
MAR DEL PLATA,DEPORTE,ROSSI ROSSI,SAN JUAN 1701,223,4760188,15,BUENOS AIRES,,,,-37.991222,-57.563143
MAR DEL PLATA,DEPORTE,ROSSI ROSSI,SAN MARTÍN 2402,223,4944570,15,BUENOS AIRES,,,,-38.000469,-57.54503
MAR DEL PLATA,DEPORTE,ROSSI ROSSI,SAN MARTÍN 2696,223,4910535,15,BUENOS AIRES,,,,-38.0054771,-57.5426106
MAR DEL PLATA,DEPORTE,SPORT SERVICE,CÓRDOBA 1751,223,5626104,15,BUENOS AIRES,,,,-37.9998205,-57.5473622
MAR DEL PLATA,FARMACIA,FARMACIA PIZZOLO,AV. MARIO BRAVO 2067,223,4841484,15,BUENOS AIRES,,,,-38.0698762,-57.5584639
MAR DEL PLATA,FARMACIA,FARMACIA PIZZOLO,AV. FORTUNATO DE LA PLAZA,223,4804932,15,BUENOS AIRES,,,,-38.0372886,-57.5815358
MAR DEL PLATA,FARMACIA,FARMACIA PIZZOLO,VERTIZ 4282,223,4809795,15,BUENOS AIRES,,,,-38.0420679,-57.5616145
MAR DEL PLATA,FARMACIA,FARMACIAS CONSTITUCIÓN,AV. CONSTITUCIÓN 6679,223,4793333,15,BUENOS AIRES,,,,-37.9570819,-57.5704529
MAR DEL PLATA,FARMACIA,FARMACIAS CONSTITUCIÓN,AV. LURO 7498,223,4773676,15,BUENOS AIRES,,,,-37.9738359,-57.5955512
MAR DEL PLATA,FARMACIA,FARMACIAS CONSTITUCIÓN,AV. CONSTITUCIÓN 6995,223,4716464,15,BUENOS AIRES,,,,-37.9552807,-57.5733135
MAR DEL PLATA,FARMACIA,FARMACIAS CONSTITUCIÓN,AV. CONSTITUCIÓN 6001,223,4710220,15,BUENOS AIRES,,,,-37.9600571,-57.5637734
MAR DEL PLATA,FARMACIA,FARMACIAS CONSTITUCIÓN,AV. JUAN B. JUSTO 494,223,4801616,15,BUENOS AIRES,,,,-38.0369997,-57.5476434
MAR DEL PLATA,INDUMENTARIA,1946,SAN JUAN 1946,223,4756966,15,BUENOS AIRES,,,,-37.9933381,-57.5645759
MAR DEL PLATA,INDUMENTARIA,1946,ALBERTI 2319,223,5257082,15,BUENOS AIRES,,,,-38.0079916,-57.549958
MAR DEL PLATA,INDUMENTARIA,BEACHBREAK SURF SHOP,AV. CONSTITUCIÓN 6522,223,4716051,15,BUENOS AIRES,,,,-37.9577991,-57.5687829
MAR DEL PLATA,INDUMENTARIA,BORDER,ALBERTI 2432,223,6892132,15,BUENOS AIRES,,,,-38.0076329,-57.5512194
MAR DEL PLATA,INDUMENTARIA,CORRADO HOMBRES,RIVADAVIA 4169,223,4752999,15,BUENOS AIRES,,,,-37.9921145,-57.5632601
MAR DEL PLATA,INDUMENTARIA,EXPRESS,ALBERTI 1610 - PASEO ALDREY,223,4519022,15,BUENOS AIRES,,,,-38.012297,-57.543921
MAR DEL PLATA,INDUMENTARIA,EXPRESS,AV. LURO 4202,223,4736198,15,BUENOS AIRES,,,,-37.9904379,-57.562534
MAR DEL PLATA,INDUMENTARIA,EXPRESS,AV. JUAN B. JUSTO 1543,223,4805713,15,BUENOS AIRES,,,,-38.0298148,-57.5565085
MAR DEL PLATA,INDUMENTARIA,EXPRESS,CASTELLI 1302,223,4862927,15,BUENOS AIRES,,,,-38.0156474,-57.5417252
MAR DEL PLATA,INDUMENTARIA,EXPRESS,GÜEMES 2781,223,4861590,15,BUENOS AIRES,,,,-38.0146329,-57.5410423
MAR DEL PLATA,INDUMENTARIA,EXPRESS,RIVADAVIA 3050- LOS GALLEGOS SHOPPING,223,4920697,15,BUENOS AIRES,,,,-37.9982793,-57.5524777
MAR DEL PLATA,INDUMENTARIA,EXPRESS,SAN MARTÍN 2656,223,4918637,15,BUENOS AIRES,,,,-37.999254,-57.547587
MAR DEL PLATA,INDUMENTARIA,MLC FITNESS,AV. JARA 14,223,4747357,15,BUENOS AIRES,,,,-37.9737827,-57.5600176
MAR DEL PLATA,INDUMENTARIA,MONTAGNE GÜEMES,GÜEMES 2620,,,15,BUENOS AIRES,,,,-38.0135786,-57.5398838
MAR DEL PLATA,INDUMENTARIA,MONTAGNE JUAN B. JUSTO,JUAN B. JUSTO 1096,,,15,BUENOS AIRES,,,,-37.9704352,-57.6353706
MAR DEL PLATA,INDUMENTARIA,MORO,SAN JUAN 1746,223,4727486,15,BUENOS AIRES,,,,-37.9917513,-57.5632432
MAR DEL PLATA,INDUMENTARIA,OZ SPORT,RIVADAVIA 4175,223,4752999,15,BUENOS AIRES,,,,-37.9921185,-57.5633252
MAR DEL PLATA,INDUMENTARIA,QALOKOTE SURF SHOP,AV. TEJEDOR 997,223,4711171,15,BUENOS AIRES,,,,-37.9656738,-57.5538996
MAR DEL PLATA,INDUMENTARIA,SILK,RIVADAVIA 3473,223,4764968,15,BUENOS AIRES,,,,-37.9956882,-57.5563215
MAR DEL PLATA,INDUMENTARIA,URBANO,AV. TEJEDOR 63,223,4715667,15,BUENOS AIRES,,,,-37.972968,-57.5598696
MAR DEL PLATA,JOYERÍA Y RELOJERÍA,O'CLOCK,SAN JUAN 1947,223,5038381,15,BUENOS AIRES,,,,-37.993031,-57.5645925
MAR DEL PLATA,LIBRERÍA,CASA CONFORTI,RIVADAVIA 2701,223,4950898,15,BUENOS AIRES,,,,-37.99963,-57.548532
MAR DEL PLATA,LIBRERÍA,CASA CRONOPIA,BELGRANO 2646,223,4952698,15,BUENOS AIRES,,,,-38.0010506,-57.5488101
MAR DEL PLATA,LIBRERÍA,HAY DE TODO,AV. CONSTITUCIÓN 6639,223,4797301,15,BUENOS AIRES,,,,-37.957298,-57.5700737
MAR DEL PLATA,LIBRERÍA,LIBRERÍA COLÓN,FIGUEROA ALCORTA 409,223,4892154,15,BUENOS AIRES,,,,-38.0435793,-57.5457915
MAR DEL PLATA,LIBRERÍA,LIBRERÍA KEN,SAN MARTÍN 3060,223,4916836,15,BUENOS AIRES,,,,-37.9974684,-57.5516204
MAR DEL PLATA,LIBRERÍA,LIBRERÍA LANCI,ALBERTI 1944,223,4923270,15,BUENOS AIRES,,,,-38.0101139,-57.5462355
MAR DEL PLATA,LIBRERÍA,LO QUE BUSCÁS GRACIANA,AV. COLÓN 7418,223,,15,BUENOS AIRES,,,,-37.9789658,-57.5986864
MAR DEL PLATA,LIBRERÍA,V + B,BELGRANO 4202,223,4736538,15,BUENOS AIRES,,,,-37.99285,-57.56451
MAR DEL PLATA,ÓPTICA,LA ÓPTICA DE GRACIELA ZORIÁN,MORENO 2901,223,4913434,15,BUENOS AIRES,,,,-38.000192,-57.551759
MAR DEL PLATA,ÓPTICA,ÓPTICA CORONEL,SAN JUAN 1883,223,4740347,15,BUENOS AIRES,,,,-37.992631,-57.564308
MAR DEL PLATA,ÓPTICA,ÓPTICA EL RESPLANDOR,AV. CONSTITUCIÓN 6625,223,4794400,15,BUENOS AIRES,,,,-37.9570781,-57.5696754
MAR DEL PLATA,ÓPTICA,ÓPTICA GALLARDO,ALBERTI 2031,223,4933267,15,BUENOS AIRES,,,,-38.0094977,-57.547109
MAR DEL PLATA,ÓPTICA,ÓPTICA PLENA VISIÓN,AV. TEJEDOR 554,223,4716474,15,BUENOS AIRES,,,,-37.9691369,-57.5562575
MAR DEL PLATA,ÓPTICA,ÓPTICA RIVADAVIA,RIVADAVIA 4190,223,4747485,15,BUENOS AIRES,,,,-37.9922079,-57.5636581
MAR DEL PLATA,ÓPTICA,ÓPTICA VAL MIC,DIAGONAL PUEYRREDÓN 3031,223,5999988,15,BUENOS AIRES,,,,-37.9985244,-57.5515418
MAR DEL PLATA,ÓPTICA,ÓPTICA VISIÓN SOCIAL,J. PERALTA RAMOS 2132,223,4938286,15,BUENOS AIRES,,,,-38.0337643,-57.5887519
MONTE HERMOSO,INDUMENTARIA,ABISMO,PEATONAL DORREGO LOCAL 5,291,4520181,15,BUENOS AIRES,,,,-38.9871036,-61.2879924
MONTE HERMOSO,INDUMENTARIA,CÓMO TE QUIERO,GAL. PASEO DE LA COSTA LOCAL 2,2921,409824,15,BUENOS AIRES,,,,-38.9871989,-61.2882052
MONTE HERMOSO,INDUMENTARIA,FAIR PLAY,MAJLUF 273,291,6444676,15,BUENOS AIRES,,,,-38.9878667,-61.287567
MONTE HERMOSO,INDUMENTARIA,FRAMBUESA,DUFAUR 85,2921,483066,15,BUENOS AIRES,,,,-38.988638,-61.2867422
MONTE HERMOSO,INDUMENTARIA,MADUS,VALLE ENCANTADO 76,2921,481023,15,BUENOS AIRES,,,,-38.9874387,-61.2854228
MONTE HERMOSO,INDUMENTARIA,MADUS - MONTE HERMOSO,VALLE ENCANTADO 76,2921,21-481023,15,BUENOS AIRES,,,,-38.9874387,-61.2854228
MONTE HERMOSO,INDUMENTARIA,ONDA JOVEN,ARGENTINA 33,291,4255454,15,BUENOS AIRES,,,,-38.9878667,-61.287567
MONTE HERMOSO,INDUMENTARIA,RUCCA CAMPERAS - MTE. HERMOSO,DORREGO 286,2921,482762,15,BUENOS AIRES,,,,-38.9866529,-61.288058
MONTE HERMOSO,INDUMENTARIA,VICENTINO,MAJLUF 388,291,4819061,15,BUENOS AIRES,,,,-38.9878667,-61.287567
MONTE HERMOSO,JOYERÍA Y RELOJERÍA,CAREY -MONTE HERMOSO,PEATONAL DORREGO 256,,,15,BUENOS AIRES,,,,-38.9869513,-61.2881639
MONTE HERMOSO,LIBRERÍA,ACUARIO,MAJLUF 729,2921,481922,15,BUENOS AIRES,,,,-38.9878667,-61.287567
NECOCHEA,DEPORTE,ZAPATILANDIA INFORMAL,AV. 59 Nº 2720,2262,438977,15,BUENOS AIRES,,,,-38.5533126,-58.7402595
NECOCHEA,INDUMENTARIA,AMELA,AV. 59 N 2054,2262,317009,15,BUENOS AIRES,,,,-38.5585581,-58.733591
NECOCHEA,INDUMENTARIA,CASA HIDALGO,CALLE 62 Nº 2854,2262,220438,15,BUENOS AIRES,,,,-38.5524434,-58.7409321
NECOCHEA,INDUMENTARIA,CASA PRIETO,AV. 75 Nº 1725,2262,430505,15,BUENOS AIRES,,,,-38.5674541,-58.738604
NECOCHEA,INDUMENTARIA,EXACT ELEMENT,CALLE 57 Nº 2831,2262,522801,15,BUENOS AIRES,,,,-38.5519893,-58.7406672
NECOCHEA,INDUMENTARIA,INDIA ROPA HINDÚ,CALLE 83 Nº 233,2262,523592,15,BUENOS AIRES,,,,-38.582422,-58.7293441
NECOCHEA,INDUMENTARIA,LEGACY-NECOCHEA,CALLE 61 Nº 2915 LOCAL 3,2262,474012,15,BUENOS AIRES,,,,-38.5528937,-58.7438555
NECOCHEA,INDUMENTARIA,MILENNIUM,AV. 59 Nº 2888,2262,528095,15,BUENOS AIRES,,,,-38.5521419,-58.7418585
NECOCHEA,INDUMENTARIA,MOIRA,CALLE 61 Nº 2840,2262,423675,15,BUENOS AIRES,,,,-38.5533862,-58.7425049
NECOCHEA,INDUMENTARIA,OSCARCITO,AV. 59 Nº 2829,2262,426021,15,BUENOS AIRES,,,,-38.552907,-58.7419919
NECOCHEA,INDUMENTARIA,RESKATE,CALLE 64 Nº 2946 LOCAL 32,2262,426542,15,BUENOS AIRES,,,,-38.5525731,-58.742946
NECOCHEA,JOYERÍA Y RELOJERÍA,GARRIE,CALLE 62 Nº 2990,2262,430669,15,BUENOS AIRES,,,,-38.5536469,-58.7424395
NECOCHEA,JOYERÍA Y RELOJERÍA,RELOJERÍA DI LELLO,CALLE 62 Nº 2943,2262,422500,15,BUENOS AIRES,,,,-38.5534763,-58.7417568
NECOCHEA,LIBRERÍA,LIBRERÍA EL ÁGUILA,CALLE 62 Nº 2802,2262,522821,15,BUENOS AIRES,,,,-38.5520762,-58.7403976
NECOCHEA,ÓPTICA,DESERIO ÓPTICA Y CONTACTOLOGÍA,AV. 59 Nº 2767,2262,523416,15,BUENOS AIRES,,,,-38.5532228,-58.7413887
NEUQUÉN,ALIMENTO PARA MASCOTAS,MARTÍN PESCADOR,BELGRANO 2749,299,4468222,10,Neuquén,,,,-38.9503999,-68.0973866
NEUQUÉN,BICICLETERÍA,BICICLETERÍA VICTORIA,CATRIEL 270,299,4423164,10,Neuquén,,,,-38.9530849,-68.0844293
NEUQUÉN,BICICLETERÍA,RODADOS VILLALBA,GODOY 551,299,154045621,10,Neuquén,,,,-38.9535983,-68.1173831
NEUQUÉN,INDUMENTARIA,BELL´S,AV. OLASCOAGA 255,299,4422885,15,Neuquén,,,,-38.9577718,-68.0595369
NEUQUÉN,INDUMENTARIA,BELL´S BOUTIQUE,AV. OLASCOAGA Y PERITO MORENO 0,299,4422885,15,Neuquén,,,,-38.9580875,-68.0585997
NEUQUÉN,INDUMENTARIA,BETEL,GODOY 315,299,155229395,15,Neuquén,,,,-38.9351134,-68.2332987
NEUQUÉN,INDUMENTARIA,BRISA TENDENCIA,GODOY 571,299,4469097,15,Neuquén,,,,-38.9535983,-68.1173831
NEUQUÉN,INDUMENTARIA,CANDELA MODAS,CHOCÓN 645,299,4431120,15,Neuquén,,,,-38.9691117,-68.0502893
NEUQUÉN,INDUMENTARIA,CELESTINO,GODOY 245,299,4469034,15,Neuquén,,,,-38.9535983,-68.1173831
NEUQUÉN,INDUMENTARIA,DINASTÍA,REPÚBLICA DE ITALIA Y RÍO GALLEGOS 0,299,155949971,15,Neuquén,,,,-38.9285095,-68.1177758
NEUQUÉN,INDUMENTARIA,ESTARGUAPA,GODOY 355,299,154022487,15,Neuquén,,,,-38.9351134,-68.2332972
NEUQUÉN,INDUMENTARIA,GEORGINA,COLIBRÍ 1695,299,156370131,15,Neuquén,,,,-38.9367989,-68.1187114
NEUQUÉN,INDUMENTARIA,JAZMÍN INDUMENTARIA,TUCUMÁN 356,299,156022075,15,Neuquén,,,,-38.9512859,-68.0522062
NEUQUÉN,INDUMENTARIA,JUNGLA URBANA,GODOY 1146,299,5665514,15,Neuquén,,,,-38.9535983,-68.1173831
NEUQUÉN,INDUMENTARIA,KACHUREOS,LINARES 1582,298,155321274,15,Neuquén,,,,-38.9720821,-68.0452475
NEUQUÉN,INDUMENTARIA,KAMASUTRA,ALCORTA 86,299,4427738,15,Neuquén,,,,-38.958401,-68.0604264
NEUQUÉN,INDUMENTARIA,MATU,GODOY 19,299,154584237,15,Neuquén,,,,-38.9535983,-68.1173831
NEUQUÉN,INDUMENTARIA,MISTRAL,RÍO NEGRO 256 - LOCAL 12,299,4488555,15,Neuquén,,,,-38.9516784,-68.0591888
NEUQUÉN,INDUMENTARIA,MISTRAL DEL ALTO,ALBERDI 32,299,155281451,15,Neuquén,,,,-38.9528619,-68.0585996
NEUQUÉN,INDUMENTARIA,MONTAGNE,AV. ARGENTINA 197,291,154131246,15,Neuquén,,,,-38.9532741,-68.0586266
NEUQUÉN,INDUMENTARIA,MUJER BONITA - NEUQUÉN,LÁINEZ 224,299,4437733,15,Neuquén,,,,-38.957336,-68.0661189
NEUQUÉN,INDUMENTARIA,MUJER BONITA II,GODOY 364,299,154293918,15,Neuquén,,,,-38.9351134,-68.2332968
NEUQUÉN,INDUMENTARIA,PINTURERÍAS OPUS,GODOY 1772,299,4469000,15,Neuquén,,,,-38.9535983,-68.1173831
NEUQUÉN,INDUMENTARIA,RANCH-NEUQUÉN,SARMIENTO 222,299,4425922,15,Neuquén,,,,-38.957323,-68.062493
NEUQUÉN,INDUMENTARIA,ROCKERÍA MITRE,CORRIENTES 240,299,155486944,15,Neuquén,,,,-38.9576307,-68.0566257
NEUQUÉN,INDUMENTARIA,ROCKERÍA MITRE I,MITRE 157 - LOCAL 10,299,155486944,15,Neuquén,,,,-38.9516784,-68.0591888
NEUQUÉN,INDUMENTARIA,SPORTMAN NEWS,SAN LUIS 238,299,4423048,15,Neuquén,,,,-38.9577216,-68.0605867
NEUQUÉN,INDUMENTARIA,TIENDA EDDI,SARMIENTO 42,299,4425092,15,Neuquén,,,,-38.9573791,-68.0597444
NEUQUÉN,INDUMENTARIA,TIENDA EL SOL,GODOY 635,299,4453883,15,Neuquén,,,,-38.9535983,-68.1173831
NEUQUÉN,INDUMENTARIA,TIENDA Y MERCERÍA BELGRANO,EL CHOCÓN 720,299,4484303,15,Neuquén,,,,-38.9687911,-68.0494509
NEUQUÉN,INDUMENTARIA,UNELEN,PERITO MORENO 27,299,155677836,15,Neuquén,,,,-38.9582477,-68.0585144
NEUQUÉN,INDUMENTARIA,ZAFIRO Y LA PERLA - NQN I,FÉLIX SAN MARTÍN 166,299,4422875,15,Neuquén,,,,-38.959232,-68.0567141
NEUQUÉN,JOYERÍA Y RELOJERÍA,RELOJERÍA SARMIENTO,SARMIENTO 776,299,4432190,15,Neuquén,,,,-38.957209,-68.0701803
NEUQUÉN,JOYERÍA Y RELOJERÍA,SERVICE RELOJERÍA,BUENOS AIRES 90,299,4485805,15,Neuquén,,,,-37.2017285,-59.8410697
NEUQUÉN,LENCERÍA,MONTEMAR,RÍO NEGRO 255,299,4427316,10,Neuquén,,,,-38.9577562,-68.0565306
NEUQUÉN,LIBRERÍA,LA CASA DEL CARTUCHO - NQN,ALCORTA 223,299,4470909,15,Neuquén,,,,-38.958118,-68.06261
NEUQUÉN,ÓPTICA,LUMIERE,BELGRANO 4120,299,154223399,15,Neuquén,,,,-38.9505369,-68.1164291
NEUQUÉN,ÓPTICA,ÓPTICA DESIGN,SARMIENTO 562,299,4425760,15,Neuquén,,,,-38.9577016,-68.0671036
NEUQUÉN,ÓPTICA,ÓPTICA SARMIENTO,SARMIENTO 148,299,4422191,15,Neuquén,,,,-38.957272,-68.061424
NEUQUÉN,ÓPTICA,ÓPTICA SARMIENTO I,AV. OLASCOAGA 0,299,4430905,15,Neuquén,,,,-38.9550282,-68.0590557
NEUQUÉN,ÓPTICA,ÓPTICA WOLF,25 DE MAYO 9,299,4472921,15,Neuquén,,,,-38.9521322,-68.0588048
NEUQUÉN,ÓPTICA,ÓPTICA WOLF CENTER - NEUQUÉN,AV. ARGENTINA 102,299,4471483,15,Neuquén,,,,-38.9538753,-68.0595257
NEUQUÉN,ÓPTICA,SOL ÓPTICA,ALBERDI 119,299,155971547,15,Neuquén,,,,-38.9530867,-68.0570538
NEUQUÉN,ZAPATERÍA,AHYRE ZAPATERÍA,SAN LUIS 216,299,155050294,10,Neuquén,,,,-38.9573781,-68.0605602
NEUQUÉN,ZAPATERÍA,DOROTEA CALZADOS,GODOY 385,299,154120587,10,Neuquén,,,,-38.9351134,-68.2332961
NEUQUÉN,ZAPATERÍA,CALZADOS 10 PUNTOS,MITRE 101,299,4778692,10,Neuquén,,,,-38.957381,-68.0574855
NEUQUÉN,ZAPATERÍA,CALZADOS 10 PUNTOS,SARMIENTO 164,299,4486423,10,Neuquén,,,,-38.9573667,-68.0616541
NEUQUÉN,ZAPATERÍA,CALZADOS 10 PUNTOS,DR. RAMON Y CASILDA 0,299,4005797/4005808,10,Neuquén,,,,-38.9546427,-68.1160619
OLAVARRÍA,INDUMENTARIA,ANKARA,GRAL. PAZ 2823,2284,418811,15,BUENOS AIRES,,,,-36.8946414,-60.3227775
OLAVARRÍA,INDUMENTARIA,AQUIRA,AV. COLÓN 2598,2284,332360,15,BUENOS AIRES,,,,-36.8884859,-60.3190783
OLAVARRÍA,INDUMENTARIA,CARBONO MEN,VTE. LÓPEZ 2477,2284,417466,15,BUENOS AIRES,,,,-36.8952017,-60.3260584
OLAVARRÍA,INDUMENTARIA,CARLOS SPORT,VTE. LÓPEZ 2945,2284,411923,15,BUENOS AIRES,,,,-36.8920337,-60.322176
OLAVARRÍA,INDUMENTARIA,CUER Y PEL PLUS,NECOCHEA 2787,,,15,BUENOS AIRES,,,,-36.8916213,-60.3199004
OLAVARRÍA,INDUMENTARIA,DENIM WARLOCK STORE OLAVARRÍA,NECOCHEA 3263,,,15,BUENOS AIRES,,,,-36.8947747,-60.3159298
OLAVARRÍA,INDUMENTARIA,DI TASCA,VTE. LÓPEZ 2881,2284,419488,15,BUENOS AIRES,,,,-36.8925238,-60.3226351
OLAVARRÍA,INDUMENTARIA,DUCK KING,BELGRANO 2951,2284,416893,15,BUENOS AIRES,,,,-36.8939961,-60.3200939
OLAVARRÍA,INDUMENTARIA,JOSEFINA TRONCOSO,BELGRANO 3132,2284,320162,15,BUENOS AIRES,,,,-36.8955221,-60.3189727
OLAVARRÍA,INDUMENTARIA,LA ROCKET,VTE. LÓPEZ 3046,2284,415467,15,BUENOS AIRES,,,,-36.8916402,-60.3211236
OLAVARRÍA,INDUMENTARIA,MINOTAURO,VTE. LÓPEZ 2719,2284,444540,15,BUENOS AIRES,,,,-36.893502,-60.3239305
OLAVARRÍA,INDUMENTARIA,MUJER Y HOMBRE DE HOY,SAN MARTÍN 2106,2284,426768,15,BUENOS AIRES,,,,-36.8889629,-60.3279362
OLAVARRÍA,INDUMENTARIA,PAMPERO,BELGRANO 2825,2284,429724,15,BUENOS AIRES,,,,-36.8932255,-60.3212687
OLAVARRÍA,INDUMENTARIA,ROCA PLANA,VTE. LÓPEZ 3201,2284,410648,15,BUENOS AIRES,,,,-36.8904988,-60.319896
OLAVARRÍA,INDUMENTARIA,SION SKATESHOP,BELGRANO 2655,2284,412450,15,BUENOS AIRES,,,,-36.8921191,-60.3226286
OLAVARRÍA,INDUMENTARIA,SLICE,VTE. LÓPEZ 2655,,,15,BUENOS AIRES,,,,-36.8939117,-60.3244244
OLAVARRÍA,INDUMENTARIA,SLICE,NECOCHEA 2903,2284,441834,15,BUENOS AIRES,,,,-36.892497,-60.3188217
OLAVARRÍA,INDUMENTARIA,SPORT CENTER,VTE. LÓPEZ 2803,2284,604229,15,BUENOS AIRES,,,,-36.8931226,-60.3231133
OLAVARRÍA,INDUMENTARIA,TIEMPO DE AVENTURA,GRAL. PAZ 2911,2284,420008,15,BUENOS AIRES,,,,-36.895128,-60.3221971
OLAVARRÍA,INDUMENTARIA,TIENDA EL OBRERO,NECOCHEA 3132,2284,418600,15,BUENOS AIRES,,,,-36.8941749,-60.3172424
OLAVARRÍA,INDUMENTARIA,WAITING,VTE. LÓPEZ 2550,2284,421088,15,BUENOS AIRES,,,,-36.8948258,-60.3251112
OLAVARRÍA,INDUMENTARIA,ZONA CERO,GRAL. PAZ 2734,2284,412717,15,BUENOS AIRES,,,,-36.8942102,-60.323887
OLAVARRÍA,JOYERÍA Y RELOJERÍA,JOYERÍA LLERA,RIVADAVIA 3081,2284,423082,15,BUENOS AIRES,,,,-36.891981,-60.3201957
OLAVARRÍA,LIBRERÍA,EL FARO DE ALEJANDRÍA,NECOCHEA 3147,2284,411364,15,BUENOS AIRES,,,,-36.8940374,-60.3168803
OLAVARRÍA,ÓPTICA,ÓPTICA CLAUDIA GAITE,VTE. LÓPEZ 2652,2284,419469,15,BUENOS AIRES,,,,-36.894144,-60.324297
OLAVARRÍA,ÓPTICA,ÓPTICA DUMA,BELGRANO 2641,2284,414100,15,BUENOS AIRES,,,,-36.8919904,-60.3227192
OLAVARRÍA,ZAPATERÍA,SIGLO XXI,NECOCHEA 3230,2284,417574,10,BUENOS AIRES,,,,-36.8948604,-60.3164352
OSTENDE,BEBÉS Y NIÑOS,ARCO IRIS,AV. VÍCTOR HUGO 1299,2254,480888,10,BUENOS AIRES,,,,-37.1297444,-56.8878934
OSTENDE,BLANCO,TEXTIL HOGAR,AV. VÍCTOR HUGO 2070,11,60432109,10,BUENOS AIRES,,,,-37.1293804,-56.8982538
OSTENDE,COTILLÓN,COTILLÓN ILUSIONES,AV. VÍCTOR HUGO 1832,2254,494742,10,BUENOS AIRES,,,,-37.1296772,-56.8953526
OSTENDE,INDUMENTARIA,SOFÍA SALVATTO,AV. VÍCTOR HUGO 1232,2254,402527,15,BUENOS AIRES,,,,-37.1302417,-56.887454
OSTENDE,ÓPTICA,OPTICA NOVALENT,AV. VÍCTOR HUGO 1825 L9,2254,406557,15,BUENOS AIRES,,,,-37.1293189,-56.8950914
OSTENDE,PELUQUERÍA,NANCY CORONEL,AV. VÍCTOR HUGO 1341,2254,514778,15,BUENOS AIRES,,,,-37.1297111,-56.8884969
OSTENDE,TIENDA DE MASCOTAS,EL PROVEEDOR DE TUS MASCOTAS II,AV. ESPAÑA 924 L1,2254,517890,10,BUENOS AIRES,,,,-37.1292116,-56.8892071
OSTENDE,VIVERO,NO ME OLVIDES-SHOW ROOM BOTÁNICO,AV. VÍCTOR HUGO 2070,2254,510607,10,BUENOS AIRES,,,,-37.1293804,-56.8982538
OSTENDE,ZAPATERÍA,CALZADO CAMILA II,AV. VÍCTOR HUGO 1860,2254,495089,10,BUENOS AIRES,,,,-37.1296345,-56.8954111
PEDRO LURO,ARTÍCULOS DE CAMPING Y PESCA,EL ANZUELO MÁGICO,VILLA NIELSEN,2928,421034,15,BUENOS AIRES,,,,-39.5027145,-62.6869493
PEDRO LURO,DEPORTE,PIERINO CALZADOS,CALLE 1 Nº 1026,2928,410910,15,BUENOS AIRES,,,,-39.5027145,-62.6869493
PEDRO LURO,INDUMENTARIA,TAURO'S VAQUERÍA,CALLE 1 Nº1042,2928,410582,15,BUENOS AIRES,,,,-39.5054847,-62.6844383
PEDRO LURO,LIBRERÍA,HUJOMAR,CALLE 1 Nº 1042,2928,410582,15,BUENOS AIRES,,,,-39.5027145,-62.6869493
PEHUAJÓ,DEPORTE,PLANETA SPORT,R. ALFONSÍN 328,2396,409755,15,BUENOS AIRES,,,,-35.8130256,-61.8974477
PEHUAJÓ,INDUMENTARIA,ALFIS JEAN,ALEM 570,2396,401221,15,BUENOS AIRES,,,,-35.8121359,-61.8975885
PEHUAJÓ,INDUMENTARIA,KEVINGSTON -PEHUAJÓ,R. ALFONSÍN 476,2396,409119,15,BUENOS AIRES,,,,-35.8118426,-61.8988653
PEHUAJÓ,INDUMENTARIA,LA CRIOLLITA,RIVAROLA 67,2396,622305,15,BUENOS AIRES,,,,-35.8154831,-61.8956636
PEHUAJÓ,INDUMENTARIA,PABLO SPORT,R. ALFONSÍN 244,2396,473341,15,BUENOS AIRES,,,,-35.8135759,-61.8967163
PEHUAJÓ,INDUMENTARIA,PRENDAS ANDREA,ALSINA 386,2396,477692,15,BUENOS AIRES,,,,-35.8118633,-61.896958
PEHUAJÓ,INDUMENTARIA,TACHA `S,ALEM 512,2396,409606,15,BUENOS AIRES,,,,-35.8118221,-61.8969797
PEHUAJÓ,INDUMENTARIA,TÍO PEPE,R. ALFONSÍN 220,2396,408858,15,BUENOS AIRES,,,,-35.8137051,-61.8964384
PEHUAJÓ,LIBRERÍA,LIBRERÍA AVENIDA,PERÓN 647,2396,404705,15,BUENOS AIRES,,,,-35.8140975,-61.9048012
PEHUAJÓ,ÓPTICA,LABORATORIO ÓPTICO JAZMIN,ALSINA 354,2396,474228,15,BUENOS AIRES,,,,-35.8120618,-61.8967154
PEHUAJÓ,ÓPTICA,ÓPTICA ALVAREZ,R. ALFONSÍN 473,2396,475722,15,BUENOS AIRES,,,,-35.8116984,-61.8983967
PEHUAJÓ,ÓPTICA,ÓPTICA VISIÓN PEHUAJÓ,DEL VALLE 490,2396,405260,15,BUENOS AIRES,,,,-35.8107166,-61.8987832
PIGÜÉ,ARTÍCULOS DE CAMPING Y PESCA,CASA CONTE,AV. CASEY 665,2923,475077,15,BUENOS AIRES,,,,-37.6040167,-62.4010792
PIGÜÉ,ARTÍCULOS DE CAMPING Y PESCA,LA BAHÍA PESCA CAMPING,HUMBERTO PRIMERO 471,2923,407149,15,BUENOS AIRES,,,,-37.6061203,-62.4105595
PIGÜÉ,DEPORTE,GIROLIMINI DEPORTES I,AV. CASEY 251,2923,402144,15,BUENOS AIRES,,,,-37.602513,-62.406841
PIGÜÉ,DEPORTE,GUTIÉRREZ DEPORTES,AV. CASEY 553,2923,472442,15,BUENOS AIRES,,,,-37.6035678,-62.4025656
PIGÜÉ,DEPORTE,WORLD SPORT,BELGRANO 378,2923,403515,15,BUENOS AIRES,,,,-37.6036649,-62.4054338
PIGÜÉ,INDUMENTARIA,ANTICO,HUMBERTO PRIMO 43,,,15,BUENOS AIRES,,,,-37.6021706,-62.4092522
PIGÜÉ,INDUMENTARIA,ÁREAS,ESPAÑA 182,2923,454356,15,BUENOS AIRES,,,,-37.6045572,-62.4066675
PIGÜÉ,INDUMENTARIA,BARDOT,CASEY 74,2923,432002,15,BUENOS AIRES,,,,-37.6014027,-62.4090763
PIGÜÉ,INDUMENTARIA,BROS HNOS.,CIUDAD DE RODEZ 237,2923,472968,15,BUENOS AIRES,,,,-37.6046643,-62.4078528
PIGÜÉ,INDUMENTARIA,CAYETINA,BELGRANO 276,2923,561939,15,BUENOS AIRES,,,,-37.6032648,-62.4068641
PIGÜÉ,INDUMENTARIA,CHIMUELAS,MONSEÑOR DURBAN 1130,,,15,BUENOS AIRES,,,,-37.6041025,-62.3944594
PIGÜÉ,INDUMENTARIA,CLEMENTE CLEMENTINA,LAVALLE 30,2923,406616,15,BUENOS AIRES,,,,-37.6023383,-62.4048581
PIGÜÉ,INDUMENTARIA,CLUB DE MODA,BELGRANO 420,2923,407333,15,BUENOS AIRES,,,,-37.6038535,-62.4048706
PIGÜÉ,INDUMENTARIA,ETERNO AMOR,SAN MARTÍN 131,2923,649074,15,BUENOS AIRES,,,,-37.6036574,-62.408251
PIGÜÉ,INDUMENTARIA,INFAME,ESPAÑA 171,,,15,BUENOS AIRES,,,,-37.6043327,-62.4070016
PIGÜÉ,INDUMENTARIA,KEOPS-PIGÜÉ,ESPAÑA 35,2923,408435,15,BUENOS AIRES,,,,-37.6028102,-62.4023118
PIGÜÉ,INDUMENTARIA,LA TABA,AV. CASEY 774,2923,405799,15,BUENOS AIRES,,,,-37.6039354,-62.3994135
PIGÜÉ,INDUMENTARIA,LEGACY,AV. CASEY 236,2923,404894,15,BUENOS AIRES,,,,-37.6019811,-62.4067867
PIGÜÉ,INDUMENTARIA,LEMONADE,AV. CASEY 286,2923,402613,15,BUENOS AIRES,,,,-37.6021498,-62.4061857
PIGÜÉ,INDUMENTARIA,MADISON,AV. CASEY 323,2923,539460,15,BUENOS AIRES,,,,-37.6027981,-62.4058783
PIGÜÉ,INDUMENTARIA,MELANGE,CIUDAD DE RODEZ 321,2923,405940,15,BUENOS AIRES,,,,-37.6048646,-62.4067838
PIGÜÉ,INDUMENTARIA,MENORCA,AV. CASEY 136,2923,404603,15,BUENOS AIRES,,,,-37.6016299,-62.4080332
PIGÜÉ,INDUMENTARIA,MILENA SHOES,AV. CASEY 421,291,4130677,15,BUENOS AIRES,,,,-37.6030654,-62.4045372
PIGÜÉ,INDUMENTARIA,ONE GOODLY,AV. CASEY 371,2923,475305,15,BUENOS AIRES,,,,-37.6029765,-62.4052135
PIGÜÉ,INDUMENTARIA,ÓSMOSIS,BELGRANO 105,2923,402145,15,BUENOS AIRES,,,,-37.6029032,-62.4092086
PIGÜÉ,INDUMENTARIA,"PEOR ES NADA, TE VISTE",BELGRANO 299,2923,406389,15,BUENOS AIRES,,,,-37.6036716,-62.4067838
PIGÜÉ,INDUMENTARIA,TEREZITA,RIVADAVIA 350,2923,403414,15,BUENOS AIRES,,,,-37.600207,-62.4044494
PIGÜÉ,INDUMENTARIA,TIEMPO LIBRE,AV. CASEY 21,,,15,BUENOS AIRES,,,,-37.6017439,-62.4099344
PIGÜÉ,LIBRERÍA,CASA MEZZANOTTE,AV. CASEY Y ESPAÑA,2923,402577,15,BUENOS AIRES,,,,-37.6028102,-62.4023118
PIGÜÉ,LIBRERÍA,ETTONAZZEM EXPRESS,ESPAÑA 10,2923,475566,15,BUENOS AIRES,,,,-37.6028102,-62.4023118
PIGÜÉ,LIBRERÍA,TEKNOBAIRES,AV. CASEY 160,2923,406690,15,BUENOS AIRES,,,,-37.6017174,-62.4078842
PIGÜÉ,ÓPTICA,ÓPTICA ALVAREZ,AV. CASEY 247,2923,472847,15,BUENOS AIRES,,,,-37.6025006,-62.4068886
PIGÜÉ,ÓPTICA,ÓPTICA SAINT GENIEZ,SAN MARTÍN 144,2923,472215,15,BUENOS AIRES,,,,-37.6036069,-62.4077467
PIGÜÉ,ÓPTICA,ÓPTICA SOCIAL,CIUDAD DE RODEZ 398,2923,404660,15,BUENOS AIRES,,,,-37.6048993,-62.4057407
PIGÜÉ,PERFUMERÍA,QUIERO AROMAS,BERNARDO DE YRIGOYEN 180,2923,412016,10,BUENOS AIRES,,,,-37.6048618,-62.405366
PIGÜÉ,ZAPATERÍA,CALZADOS IVONNE,CIUDAD DE RODEZ 342,2923,402100,10,BUENOS AIRES,,,,-37.6047405,-62.4064024
PINAMAR,BAZAR Y DECORACIÓN,TIENDA SHAW,AV. SHAW 87,2254,523253,10,BUENOS AIRES,,,,-37.1112293,-56.8670958
PINAMAR,BEBÉS Y NIÑOS,ARCHY,AV. CONSTITUCIÓN 996 L11,2254,495125,10,BUENOS AIRES,,,,-37.1111246,-56.8669008
PINAMAR,BEBÉS Y NIÑOS,ARCO IRIS,AV. SHAW 94,2254,403757,10,BUENOS AIRES,,,,-37.1109119,-56.8672338
PINAMAR,BEBÉS Y NIÑOS,ARCO IRIS I,AV. SHAW 328,2254,490092,10,BUENOS AIRES,,,,-37.1092102,-56.8668244
PINAMAR,BEBÉS Y NIÑOS,NANY,AV. CONSTITUCIÓN 1041,2254,518394,10,BUENOS AIRES,,,,-37.1105455,-56.8677574
PINAMAR,BLANCO,ESTILO Y HOGAR,AV. SHAW 639,2254,481699,10,BUENOS AIRES,,,,-37.1064714,-56.8644379
PINAMAR,BLANCO,TEXTIL HOGAR,APOLO 210,2254,515363,10,BUENOS AIRES,,,,-37.1076883,-56.8737004
PINAMAR,COTILLÓN,ILUSIONES,AV. CONSTITUCIÓN 949,2267,669479,10,BUENOS AIRES,,,,-37.1109645,-56.8664996
PINAMAR,FLORERÍA,PAMPA GRASS,ENEAS 99,2254,15446251,10,BUENOS AIRES,,,,-37.1106276,-56.8687795
PINAMAR,INDUMENTARIA,BUON & LOP,AV. CONSTITUCIÓN 1041,2254,402271,15,BUENOS AIRES,,,,-37.1105455,-56.8677574
PINAMAR,INDUMENTARIA,BUON & LOP SPORT,AV. SHAW 198,2254,480692,15,BUENOS AIRES,,,,-37.1102619,-56.8666714
PINAMAR,INDUMENTARIA,HOFFER VIDA LIBRE,AV. CONSTITUCIÓN 1097,2254,486844,15,BUENOS AIRES,,,,-37.1103076,-56.8686522
PINAMAR,INDUMENTARIA,MAURO SERGIO,AV. CONSTITUCIÓN 1075,2254,406688,15,BUENOS AIRES,,,,-37.1103762,-56.8680725
PINAMAR,INDUMENTARIA,TENDENCIAS,AV. SHAW 328,2254,403007,15,BUENOS AIRES,,,,-37.1092102,-56.8668244
PINAMAR,JOYERÍA Y RELOJERÍA,EDELWEISS,AV. SHAW 328,2254,486272,15,BUENOS AIRES,,,,-37.1092102,-56.8668244
PINAMAR,LIBRERÍA,ALPA PINAMAR,DE LA CORVINA 1425,2254,515499,15,BUENOS AIRES,,,,-37.1068699,-56.8672857
PINAMAR,LIBRERÍA,LIBREMAR,JASON 945,2254,497838,15,BUENOS AIRES,,,,-37.1115451,-56.8670413
PINAMAR,MARROQUINERÍA,COCAS,AV. SHAW 328,2254,515159,10,BUENOS AIRES,,,,-37.1092102,-56.8668244
PINAMAR,MARROQUINERÍA,TODO CUERO,AV. SHAW 95 L9,2254,441416,10,BUENOS AIRES,,,,-37.1111951,-56.8670376
PINAMAR,MUEBLES,AMOBLAMIENTOS ABECORAJOR,AV. CONSTITUCIÓN 1069,2254,482026,10,BUENOS AIRES,,,,-37.1103557,-56.8680326
PINAMAR,ÓPTICA,LENS VISION,AV. SHAW 4502 L16,2254,481711,15,BUENOS AIRES,,,,-37.081644,-56.8429929
PINAMAR,ÓPTICA,LA ALMEJA MIOPE,AVENIDA CONSTITUCIÓN 949,2254,480956,15,BUENOS AIRES,,,,-37.1109645,-56.8664996
PINAMAR,ORTOPEDIA,ORTOPEDIA MELESI,AV. SHAW 328 L23 Y L24,2254,409475,10,BUENOS AIRES,,,,-37.1092102,-56.8668244
PINAMAR,PELUQUERÍA,GABY-B,JASON 497,2254,416598,15,BUENOS AIRES,,,,-37.1128342,-56.8631339
PINAMAR,PERFUMERÍA,PERFUMERÍA COLLINS,AV. SHAW 69,2254,404170,10,BUENOS AIRES,,,,-37.1113684,-56.8671654
PINAMAR,REGALERÍA,NAMASTE,AV. SHAW 328 L14,,,10,BUENOS AIRES,,,,-37.1092102,-56.8668244
PINAMAR,TIENDA DE MASCOTAS,EL PROVEEDOR DE TUS MASCOTAS,DE LAS MEDUSAS 1295,2254,15517888,10,BUENOS AIRES,,,,-37.1090371,-56.8657499
PINAMAR,ZAPATERÍA,CALZADO CAMILA,DE LAS MEDUSAS 1281,2254,481648,10,BUENOS AIRES,,,,-37.1089477,-56.8655722
PLOTTIER,ARTÍCULOS DE CAMPING Y PESCA,ARCOÍRIS PESCA Y CAMPING,SALTA 397,299,4936161,15,Neuquén,,,,-38.9601466,-68.240425
PLOTTIER,BICICLETERÍA,CHARLY BIKE,BUENOS AIRES SUR 626,299,155279966,10,Neuquén,,,,-38.9571494,-68.2376724
PLOTTIER,COMPUTACIÓN,PALNET,SANTA CRUZ 781,299,155232489,10,Neuquén,,,,-38.9602203,-68.2398032
PLOTTIER,INDUMENTARIA,LEONAS,PERITO MORENO 27,299,155031840,15,Neuquén,,,,-38.9542211,-68.2268613
PLOTTIER,INDUMENTARIA,MYTHOS I,AV. RIAVITZ Y PRIMEROS POBLADORES 0,299,4935066,15,Neuquén,,,,-38.9542242,-68.2260921
PLOTTIER,INDUMENTARIA,ONE,BELGRANO 159,299,4936020,15,Neuquén,,,,-38.9528354,-68.2287206
PLOTTIER,INDUMENTARIA,PYT,BELGRANO 400,299,4938040,15,Neuquén,,,,-38.9531029,-68.2329678
PLOTTIER,INDUMENTARIA,REGALERÍA LA PATAGONIA,AV. SAN MARTÍN 82,299,4932077,15,Neuquén,,,,-38.9535116,-68.2262066
PLOTTIER,INDUMENTARIA,ROJO Y MIEL,JUAN B. JUSTO 56,299,156228899,15,Neuquén,,,,-38.952945,-68.22519
PLOTTIER,INDUMENTARIA,SOUTH SNEAKERS,SAN MARTÍN 89 LOCAL 1,299,4936898,15,Neuquén,,,,-38.9475672,-68.22885
PLOTTIER,LIBRERÍA,LIBRERÍA MIL HOJAS,PIEDRA DEL ÁGUILA 893,299,4934480,15,Neuquén,,,,-38.9447697,-68.2181208
PLOTTIER,LIBRERÍA,LIBRERÍA NATIVIDAD,MILLALEN 947,299,154105477,15,Neuquén,,,,-38.9438293,-68.1936117
PLOTTIER,LIBRERÍA,LIBRERÍA SANTA GENOVEVA,SANTA CRUZ 816,299,4936244,15,Neuquén,,,,-38.9604685,-68.2400612
PLOTTIER,MARROQUINERÍA,REGALERÍA NOSCOHUE,SARMIENTO 45,299,4937311,10,Neuquén,,,,-38.951466,-68.2269242
PLOTTIER,MARROQUINERÍA,REGALERÍA NOSCOHUE II,AV. SAN MARTÍN 284,299,4937311,10,Neuquén,,,,-38.9510613,-68.2263638
PUNTA ALTA,ARTÍCULOS DE CAMPING Y PESCA,ÁGUILA BLANCA,BROWN 430,2932,431660,15,BUENOS AIRES,,,,-38.880852,-62.075815
PUNTA ALTA,DEPORTE,ARTÍCULOS DEPORTIVOS,BDO. DE IRIGOYEN 515,,,15,BUENOS AIRES,,,,-38.8812489,-62.0751227
PUNTA ALTA,INDUMENTARIA,ACTTITUD,BDO. DE IRIGOYEN 285,2932,426410,15,BUENOS AIRES,,,,-38.8819526,-62.0791503
PUNTA ALTA,INDUMENTARIA,AVANTI,BDO. DE IRIGOYEN 178,2932,426737,15,BUENOS AIRES,,,,-38.88189,-62.080567
PUNTA ALTA,INDUMENTARIA,BOGA,BDO. DE IRIGOYEN 431,,,15,BUENOS AIRES,,,,-38.8815251,-62.0769748
PUNTA ALTA,INDUMENTARIA,CARUSSO DEPORTES,BDO. DE IRIGOYEN 101,2932,422235,15,BUENOS AIRES,,,,-38.8822704,-62.0815766
PUNTA ALTA,INDUMENTARIA,CARUSSO SPORT,BDO. DE IRIGOYEN 99,2932,422235,15,BUENOS AIRES,,,,-38.8823195,-62.0819013
PUNTA ALTA,INDUMENTARIA,CHICHEN,PTO. MADRYN 371,2932,426790,15,BUENOS AIRES,,,,-38.8602808,-62.0837432
PUNTA ALTA,INDUMENTARIA,DONNA LINGERIE,BDO. DE IRIGOYEN 175,,,15,BUENOS AIRES,,,,-38.882114,-62.080548
PUNTA ALTA,INDUMENTARIA,FACHA`S,BDO. DE IRIGOYEN 68,,,15,BUENOS AIRES,,,,-38.8821517,-62.0823777
PUNTA ALTA,INDUMENTARIA,FIJI,BDO. DE IRIGOYEN 40,,,15,BUENOS AIRES,,,,-38.8822008,-62.0826818
PUNTA ALTA,INDUMENTARIA,GIOVANNI,BDO. DE IRIGOYEN 499,,,15,BUENOS AIRES,,,,-38.881322,-62.075701
PUNTA ALTA,INDUMENTARIA,KROTO´S,BDO. DE IRIGOYEN 140,,,15,BUENOS AIRES,,,,-38.8819108,-62.0811139
PUNTA ALTA,INDUMENTARIA,M & M BOUTIQUE,ROCA 417,,,15,BUENOS AIRES,,,,-38.8815728,-62.0800086
PUNTA ALTA,INDUMENTARIA,MEGASTORE BAMBACI,COLÓN 375,2932,423204,15,BUENOS AIRES,,,,-38.8766081,-62.0707813
PUNTA ALTA,INDUMENTARIA,OVEJA NEGRA,25 DE MAYO 547,,,15,BUENOS AIRES,,,,-38.8798698,-62.0792363
PUNTA ALTA,INDUMENTARIA,SIDDHARTA,BDO. DE IRIGOYEN 314,2932,425220,15,BUENOS AIRES,,,,-38.8815672,-62.0784737
PUNTA ALTA,INDUMENTARIA,SURFSHOP BAMBACI,MURATURE 459,2932,421754,15,BUENOS AIRES,,,,-38.8801093,-62.0740049
PUNTA ALTA,INDUMENTARIA,TERRITORIO EXTREMO,PELLEGRINI 68,,,15,BUENOS AIRES,,,,-38.8773525,-62.0836174
PUNTA ALTA,INDUMENTARIA,TIENDA BONITA ACCESORIOS,QUINTANA 444,,,15,BUENOS AIRES,,,,-38.8692563,-62.0799284
PUNTA ALTA,INDUMENTARIA,TIENDA DILSA,BDO. DE IRIGOYEN 330,2932,422551,15,BUENOS AIRES,,,,-38.8815747,-62.0783988
PUNTA ALTA,INDUMENTARIA,TIENDA LA NUEVA CIUDAD,ESPORA ESQ. LUIGGI,2932,424371,15,BUENOS AIRES,,,,-38.877068,-62.073649
PUNTA ALTA,INDUMENTARIA,TIENDAS CECIL,JUJUY 1755,,,15,BUENOS AIRES,,,,-38.8648108,-62.0730553
PUNTA ALTA,INDUMENTARIA,TITÁN TRAJERÍAS,BDO. DE IRIGOYEN 298,2932,425127,15,BUENOS AIRES,,,,-38.8816137,-62.0790032
PUNTA ALTA,INDUMENTARIA,VÍSTETE KABRON,BDO. DE IRIGOYEN 224,,,15,BUENOS AIRES,,,,-38.8816681,-62.0796538
PUNTA ALTA,INDUMENTARIA,VITTORIO,BDO. DE IRIGOYEN 233,,,15,BUENOS AIRES,,,,-38.882008,-62.0796338
PUNTA ALTA,JOYERÍA Y RELOJERÍA,JOYERÍA REIMS,BDO. DE IRIGOYEN 360,2932,422555,15,BUENOS AIRES,,,,-38.8814617,-62.0780032
PUNTA ALTA,JOYERÍA Y RELOJERÍA,MAKIWARA REGALOS,BDO. DE IRIGOYEN 162,2932,430981,15,BUENOS AIRES,,,,-38.881903,-62.080651
PUNTA ALTA,LIBRERÍA,LIBRERÍA MATILDE,BDO. DE IRIGOYEN 75,2932,439200,15,BUENOS AIRES,,,,-38.88236,-62.0821237
PUNTA ALTA,LIBRERÍA,LIBRERÍA TIMI,BDO. DE IRIGOYEN 341,2932,421735,15,BUENOS AIRES,,,,-38.8817743,-62.0782596
PUNTA ALTA,LIBRERÍA,LIBRERÍA TIMI,PASO 1908,2932,430564,15,BUENOS AIRES,,,,-38.8766081,-62.0707813
PUNTA ALTA,LIBRERÍA,UNI LIBROS,BDO. DE IRIGOYEN 400,2932,430832,15,BUENOS AIRES,,,,-38.8813988,-62.0775942
PUNTA ALTA,MARROQUINERÍA,REINA MORA,HUMBERTO 379,,,10,BUENOS AIRES,,,,-38.8766081,-62.0707813
PUNTA ALTA,MUEBLES,FERLIDO,BDO. DE IRIGOYEN 702,2932,423959,10,BUENOS AIRES,,,,-38.880565,-62.0724819
PUNTA ALTA,ÓPTICA,CRISTALENT,RIVADAVIA 170,2932,426550,15,BUENOS AIRES,,,,-38.8807132,-62.0810414
PUNTA ALTA,ÓPTICA,ÓPTICA LUMIERE,ROCA 338,2932,431915,15,BUENOS AIRES,,,,-38.8830445,-62.0800543
PUNTA ALTA,ÓPTICA,ÓPTICA MAS,AV. LA ESTACIÓN S/N,2932,428165,15,BUENOS AIRES,,,,-38.883459,-62.0678423
PUNTA ALTA,ZAPATERÍA,GERARDO PRIMERO,ROCA 398,2932,435865,10,BUENOS AIRES,,,,-38.8819112,-62.0802021
PUNTA ALTA,ZAPATERÍA,GERARDO PRIMERO SPORT,LUIGGI 1347,,,10,BUENOS AIRES,,,,-38.8757158,-62.0642257
PUNTA ALTA,ZAPATERÍA,NOVISSIMO,BDO. DE IRIGOYEN 201,,,10,BUENOS AIRES,,,,-38.8819112,-62.0802021
RINCÓN DE LOS SAUCES,ÓPTICA,ÓPTICA WOLF CENTER - R. DE LOS SAUCES,NEUQUÉN 405,299,4887887,15,Neuquén,,,,-37.3914121,-68.9267774
RÍO COLORADO,INDUMENTARIA,EXPRESS,ROCA 725,2931,430753,15,RÍO NEGRO,,,,-38.9880388,-64.0957189
RÍO COLORADO,INDUMENTARIA,MASSON AUTHENTIC,SAN MARTÍN 585,2920,574597,15,RÍO NEGRO,,,,-38.9944419,-64.0950978
RÍO COLORADO,INDUMENTARIA,ME LO MEREZCO - RÍO COLORADO,IRIGOYEN 270,2931,431064,15,RÍO NEGRO,,,,-38.991936,-64.0965605
RÍO COLORADO,INDUMENTARIA,SALDERÍA.2,SAN MARTÍN 507,2920,574579,15,RÍO NEGRO,,,,-38.9943673,-64.0946517
RÍO COLORADO,LIBRERÍA,LU-AL,SAN MARTÍN 611,2931,432552,15,RÍO NEGRO,,,,-38.9944419,-64.0950978
RÍO COLORADO,ÓPTICA,CENTRO ÓPTICO ROSALES,BELGRANO 501,2931,431356,15,RÍO NEGRO,,,,-38.9920245,-64.0947527
RÍO COLORADO,ÓPTICA,OPTI-K,ROCA 118,2931,431199,15,RÍO NEGRO,,,,-38.9936431,-64.0941148
SAN MARTÍN DE LOS ANDES,INDUMENTARIA,EMMANUELL,BELGRANO 846,2972,428600,15,Neuquén,,,,-40.1568364,-71.3493214
SAN MARTÍN DE LOS ANDES,INDUMENTARIA,LEGACY,MARIANO MORENO 825,2972,413050,15,Neuquén,,,,-40.1581742,-71.3536984
SAN MARTÍN DE LOS ANDES,INDUMENTARIA,SPIRIT PATAGONIA,AV. SAN MARTÍN 999,2972,421779,15,Neuquén,,,,-40.1562245,-71.348451
SAN MARTÍN DE LOS ANDES,INDUMENTARIA,TIENDA ELORDI,ELORDI 692,2972,429612,15,Neuquén,,,,-40.1548571,-71.348868
SAN MARTÍN DE LOS ANDES,ÓPTICA,ÓPTICA MONTANA,BELGRANO 820 LOCAL 5,2972,410298,15,Neuquén,,,,-40.1572103,-71.3524436
SAN MARTÍN DE LOS ANDES,INDUMENTARIA,CALZADOS NAMÚN l,CURRUHUINCA 790,2972,410316,15,Neuquén,,,,-40.1455667,-71.3834943
SAN MARTÍN DE LOS ANDES,INDUMENTARIA,CALZADOS NAMÚN ll,AV. SAN MARTÍN 761,2972,428535,15,Neuquén,,,,-40.1572266,-71.3514375
SAN NICOLÁS DE LOS ARROYOS,DEPORTE,JUEGAN TODOS,MITRE 376,11,1533270031,15,BUENOS AIRES,,,,-33.3340039,-60.2221665
SAN NICOLÁS DE LOS ARROYOS,INDUMENTARIA,8 GALONES,MITRE 117,336,4471134,15,BUENOS AIRES,,,,-33.3286585,-60.21733
SAN NICOLÁS DE LOS ARROYOS,INDUMENTARIA,BE MEN,MITRE 156,336,4337854,15,BUENOS AIRES,,,,-33.3297024,-60.2179239
SAN NICOLÁS DE LOS ARROYOS,INDUMENTARIA,CASA MARTY,ALMIRANTE DÍAZ 66,336,4445492,15,BUENOS AIRES,,,,-33.3528909,-60.2427056
SAN NICOLÁS DE LOS ARROYOS,INDUMENTARIA,EL ÁNGEL,AV. SAVIO 136,336,4655170,15,BUENOS AIRES,,,,-33.3383461,-60.219153
SAN NICOLÁS DE LOS ARROYOS,INDUMENTARIA,FUOCO,MITRE 324,336,4327282,15,BUENOS AIRES,,,,-33.3328042,-60.2213761
SAN NICOLÁS DE LOS ARROYOS,INDUMENTARIA,MISTRAL,NACION 360 LOCAL B,336,4520495,15,BUENOS AIRES,,,,-33.3307366,-60.2169529
SAN NICOLÁS DE LOS ARROYOS,INDUMENTARIA,REFANS,MITRE 188,336,4434002,15,BUENOS AIRES,,,,-33.3301891,-60.2184135
SAN NICOLÁS DE LOS ARROYOS,INDUMENTARIA,SIN ETIQUETAS,AV. VIALE 247,336,4552122,15,BUENOS AIRES,,,,-33.3237085,-60.2305023
SAN NICOLÁS DE LOS ARROYOS,INDUMENTARIA,X TREMO,MITRE 158,336,4337854,15,BUENOS AIRES,,,,-33.3298231,-60.217902
SAN NICOLÁS DE LOS ARROYOS,JOYERÍA Y RELOJERÍA,ELIXIR,MITRE 216,336,4421133,15,BUENOS AIRES,,,,-33.3308098,-60.2190227
SAN NICOLÁS DE LOS ARROYOS,LIBRERÍA,EL ACUERDO,MITRE 131,336,4437926,15,BUENOS AIRES,,,,-33.3288994,-60.2175636
SAN NICOLÁS DE LOS ARROYOS,LIBRERÍA,EN PAPEL ARTE,MITRE 122 LOCAL 1,336,4437926,15,BUENOS AIRES,,,,-33.3334669,-60.2110494
SAN NICOLÁS DE LOS ARROYOS,LIBRERÍA,GIGI,ALMIRANTE DÍAZ 58,336,4672742,15,BUENOS AIRES,,,,-33.3529509,-60.2426252
SAN NICOLÁS DE LOS ARROYOS,LIBRERÍA,K-SA MILLY,PRESIDENTE PERÓN 1007,336,4596574,15,BUENOS AIRES,,,,-33.3471238,-60.2334421
SAN NICOLÁS DE LOS ARROYOS,LIBRERÍA,LA MATITA,PELLEGRINI 550,336,4436725,15,BUENOS AIRES,,,,-33.3390949,-60.2231904
SAN NICOLÁS DE LOS ARROYOS,ÓPTICA,LUCHESSI,NACIÓN 305,336,4423603,15,BUENOS AIRES,,,,-33.3334669,-60.2110494
SAN NICOLÁS DE LOS ARROYOS,ÓPTICA,ÓPTICA BISTOTTO,MITRE 151,336,4423600,15,BUENOS AIRES,,,,-33.3294776,-60.2179396
SAN NICOLÁS DE LOS ARROYOS,ÓPTICA,ÓPTICA BISTOTTO,ALMAFUERTE 2,336,4434335,15,BUENOS AIRES,,,,-33.332339,-60.21852
SAN NICOLÁS DE LOS ARROYOS,ÓPTICA,ÓPTICA VISUAL,GARIBALDI 280,336,4430907,15,BUENOS AIRES,,,,-33.3344449,-60.2166436
SAN PATRICIO DEL CHAÑAR,ZAPATERÍA,CALZADOS 10 PUNTOS,AV. PILAYQUEN S/N,299,4855067,10,Neuquén,,,,-38.6262722,-68.2993465
SANTA MARÍA,INDUMENTARIA,BORA BORA,AV. ALEMANES DEL VOLGA 1009,2926,494200,15,BUENOS AIRES,,,,-37.5615121,-61.8787291
SANTA ROSA,LIBRERÍA,BIRO,AVENIDA SAN MARTÍN 119,2954,418700,15,La Pampa,,,,-36.6211935,-64.2928958
SANTA ROSA,INDUMENTARIA,LIBERTY,AVELLANEDA 246,2954,419191,15,La Pampa,,,,-36.6193615,-64.2913627
SANTA ROSA,INDUMENTARIA,RÚSTICOS,MANSILLA 430,2954,562544,15,La Pampa,,,,-36.6179119,-64.2855785
SANTA ROSA,INDUMENTARIA,TEXTIL,CORONEL GIL 217,2954,422680,15,La Pampa,,,,-36.6190265,-64.2897109
SANTA ROSA,ÓPTICA,CINALENT,MITRE 255,2954,702911,15,La Pampa,,,,-36.6236479,-64.290977
SANTA ROSA,ÓPTICA,OPTIMEC,CORONEL GIL 684,2954,420640,15,La Pampa,,,,-36.6239076,-64.2900523
SANTA ROSA,ZAPATERÍA,LABERINTO,25 DE MAYO 498,2954,437540,10,La Pampa,,,,-36.6220674,-64.288686
SANTA ROSA,ZAPATERÍA,LO DE VÍCTOR,GENERAL PICO 491,2954,416777,10,La Pampa,,,,-36.6219374,-64.2937045
SANTA ROSA,ZAPATERÍA,LO DE VÍCTOR I,SAN MARTÍN Y MORENO,2954,771117,10,La Pampa,,,,-36.6220415,-64.2861203
SIERRA DE LA VENTANA,ÓPTICA,ÓPTICA SAINT GERMAIN II,MALVINAS 31,291,4915579,15,BUENOS AIRES,,,,-38.1379103,-61.7963329
SUNCHALES,INDUMENTARIA,ALDEA,AV. INDEPENDENCIA 270,3493,407486,15,Santa Fe,,,,-30.9457068,-61.563256
SUNCHALES,INDUMENTARIA,CRUZ DIABLO,AV. INDEPENDENCIA 86,3493,459088,15,Santa Fe,,,,-30.9462181,-61.5651387
SUNCHALES,INDUMENTARIA,PAUMAR,AV. IRIGOYEN 830,3493,459130,15,Santa Fe,,,,-30.944362,-61.5572182
SUNCHALES,INDUMENTARIA,TIENDA MAITE,25 DE MAYO 129,3493,440343,15,Santa Fe,,,,-30.9448393,-61.5650474
SUNCHALES,DEPORTE,SPORT FREE,AV. IRIGOYEN 1052,3493,416864,15,Santa Fe,,,,-30.9438869,-61.5549057
TORNQUIST,INDUMENTARIA,INÉDITA,ERNESTO TORNQUIST 259,291,154747048,15,BUENOS AIRES,,,,-38.1014787,-62.2260313
TORNQUIST,INDUMENTARIA,LA TIENDA DEL LEÓN,SAFONTAS 235,291,154399148,15,BUENOS AIRES,,,,-38.0987358,-62.2236252
TORNQUIST,INDUMENTARIA,LO QUE QUIERO,ESPAÑA 157,291,4940323,15,BUENOS AIRES,,,,-38.0987358,-62.2236252
TORNQUIST,INDUMENTARIA,NAARA,12 DE OCTUBRE 39,291,154124946,15,BUENOS AIRES,,,,-38.1020733,-62.2256663
TORNQUIST,INDUMENTARIA,SPORT WEAR,12 DE OCTUBRE 881,291,155747614,15,BUENOS AIRES,,,,-38.1109174,-62.2246973
TORNQUIST,LENCERÍA,LUNA II,25 DE MAYO 325,291,156467431,15,BUENOS AIRES,,,,-38.1025646,-62.2249493
TORNQUIST,LENCERÍA,NARANJOS,ERNESTO TORNQUIST 299,291,154322896,15,BUENOS AIRES,,,,-38.1015665,-62.225498
TORNQUIST,LIBRERÍA,EL ALMACÉN - TORNQUIST,BELGRANO 241,291,154063281,15,BUENOS AIRES,,,,-38.1040978,-62.2259788
TORNQUIST,ÓPTICA,CENTRO ÓPTICO TORNQUIST,9 DE JULIO 325,291,154023693,15,BUENOS AIRES,,,,-38.1002763,-62.2253065
TORNQUIST,ÓPTICA,ÓPTICA SAINT GERMAIN,RAWSON 46,291,4940616,15,BUENOS AIRES,,,,-38.1021187,-62.226415
TORNQUIST,REGALERÍA,GIFT,MITRE 61,291,154123329,10,BUENOS AIRES,,,,-38.1009303,-62.225257
TRENQUE LAUQUEN,INDUMENTARIA,FAMILY,URUGUAY 460,2392,413562,15,BUENOS AIRES,,,,-35.9754629,-62.737693
TRENQUE LAUQUEN,INDUMENTARIA,MERCERÍA ELBA,BROWN 110,2392,422910,15,BUENOS AIRES,,,,-35.9631843,-62.7339958
TRENQUE LAUQUEN,INDUMENTARIA,TIENDA LALO,TTE. URIBURU 12,2392,412497,15,BUENOS AIRES,,,,-35.9644843,-62.7298686
TRENQUE LAUQUEN,INDUMENTARIA,TIENDA LOS VASCOS,VILLEGAS 159,2392,410020,15,BUENOS AIRES,,,,-35.9699484,-62.7364308
TRENQUE LAUQUEN,INDUMENTARIA,TIZA JEANS,VILLEGAS 880,2392,410193,15,BUENOS AIRES,,,,-35.9767253,-62.7305575
TRENQUE LAUQUEN,ÓPTICA,ÓPTICA ANDRADES,9 DE JULIO 11,2392,410344,15,BUENOS AIRES,,,,-35.9714874,-62.733495
TRENQUE LAUQUEN,ÓPTICA,ÓPTICA MARTÍN,VILLEGAS798,2392,410320,15,BUENOS AIRES,,,,-35.9732789,-62.7325973
TRENQUE LAUQUEN,ÓPTICA,ÓPTICA CONOS,AVELLANEDA 376,2392,415526,15,BUENOS AIRES,,,,-35.9730335,-62.73674
TRES ARROYOS,ARTÍCULOS DE CAMPING Y PESCA,FÁBRICA RIDAO,MORENO 1460,2983,426027,15,BUENOS AIRES,,,,-38.3775437,-60.2752295
TRES ARROYOS,ARTÍCULOS DE CAMPING Y PESCA,MUNDO PESCA,MORENO 667,2983,534400,15,BUENOS AIRES,,,,-34.6340099,-58.791382
TRES ARROYOS,BAZAR Y DECORACIÓN,ALQUIMIA TS AS,9 DE JULIO 46,2983,434377,10,BUENOS AIRES,,,,-38.3795642,-60.2731422
TRES ARROYOS,BAZAR Y DECORACIÓN,AYM,CHACABUCO 323,2983,432022,10,BUENOS AIRES,,,,-38.3809861,-60.274612
TRES ARROYOS,BAZAR Y DECORACIÓN,MARIPOSAS Y LIBÉLULAS,BETOLAZA 546,2983,428402,10,BUENOS AIRES,,,,-38.3909409,-60.2911345
TRES ARROYOS,INDUMENTARIA,CARDÓN,MORENO 142,2983,427344,15,BUENOS AIRES,,,,-38.3775437,-60.2752295
TRES ARROYOS,INDUMENTARIA,CRISTÓBAL,IRIGOYEN 17,2983,531224,15,BUENOS AIRES,,,,-38.3785635,-60.2740962
TRES ARROYOS,INDUMENTARIA,FACTORÍAS,CHACABUCO 260,2983,429359,15,BUENOS AIRES,,,,-38.3802189,-60.2749221
TRES ARROYOS,INDUMENTARIA,JUMP,CHACABUCO 329,2983,385838,15,BUENOS AIRES,,,,-38.3810235,-60.2744762
TRES ARROYOS,INDUMENTARIA,LA CASA DEL PANTALÓN,COLÓN 416,2983,428431,15,BUENOS AIRES,,,,-38.3807582,-60.2724401
TRES ARROYOS,INDUMENTARIA,LAS LEÑAS,COLÓN 273,2983,422394,15,BUENOS AIRES,,,,-38.3798932,-60.2742195
TRES ARROYOS,INDUMENTARIA,LAS LEÑAS - TRES ARROYOS,COLÓN 273,,,15,BUENOS AIRES,,,,-38.3798932,-60.2742195
TRES ARROYOS,INDUMENTARIA,LATITUD SUR,BETOLAZA 124,2983,424867,15,BUENOS AIRES,,,,-38.3909409,-60.2911345
TRES ARROYOS,INDUMENTARIA,MARCO POLO II,COLÓN 375,2983,428352,15,BUENOS AIRES,,,,-38.3805685,-60.2732484
TRES ARROYOS,INDUMENTARIA,NICOLE,COLÓN 255,2983,429133,15,BUENOS AIRES,,,,-38.3796441,-60.274266
TRES ARROYOS,INDUMENTARIA,NOVEDADES NATY,BELGRANO 335,2983,432421,15,BUENOS AIRES,,,,-38.3744523,-60.2722292
TRES ARROYOS,INDUMENTARIA,OTERO HOMBRES,IRIGOYEN 79,2983,432149,15,BUENOS AIRES,,,,-38.3789125,-60.27473
TRES ARROYOS,INDUMENTARIA,PAMPERO,MAIPU 116,2983,643054,15,BUENOS AIRES,,,,-38.3809097,-60.272929
TRES ARROYOS,INDUMENTARIA,REFLOJOS,IRIGOYEN 38,2983,433362,15,BUENOS AIRES,,,,-38.3788429,-60.2739467
TRES ARROYOS,INDUMENTARIA,ROCHA H-M,BETOLAZA 144,2983,347164,15,BUENOS AIRES,,,,-38.3909409,-60.2911345
TRES ARROYOS,INDUMENTARIA,RVD,9 DE JULIO 124,2983,420348,15,BUENOS AIRES,,,,-38.380196,-60.2737296
TRES ARROYOS,INDUMENTARIA,SAYIDA,IRIGOYEN 217,2983,569635,15,BUENOS AIRES,,,,-38.3799518,-60.2760112
TRES ARROYOS,INDUMENTARIA,SHOW SPORT,COLÓN 397,2983,420348,15,BUENOS AIRES,,,,-38.3806155,-60.2728266
TRES ARROYOS,JOYERÍA Y RELOJERÍA,AVENTURINA JOYAS,IRIGOYEN 126,2983,548258,15,BUENOS AIRES,,,,-38.3795435,-60.274852
TRES ARROYOS,JOYERÍA Y RELOJERÍA,IVORY JOYAS,9 DE JULIO 78,2983,432773,15,BUENOS AIRES,,,,-38.3798784,-60.2734336
TRES ARROYOS,JOYERÍA Y RELOJERÍA,JOYERÍA EL RUBÍ,25 DE MAYO 68,2983,424816,15,BUENOS AIRES,,,,-38.3794614,-60.2777794
TRES ARROYOS,JOYERÍA Y RELOJERÍA,JOYERÍA LÓPEZ,TACUARÍ 263,2983,429241,15,BUENOS AIRES,,,,-38.3682961,-60.2817516
TRES ARROYOS,LENCERÍA,GENOVEVA,CHACABUCO 77,2983,431068,10,BUENOS AIRES,,,,-38.3791061,-60.276925
